{
  "data": {
    "stops": [
      {
        "gtfsId": "HSL:6150219",
        "name": "Louhosmäki",
        "lat": 60.202282,
        "lon": 24.358088,
        "zoneId": "D",
        "vehicleType": 3,
        "vehicleMode": "BUS"
      },
      {
        "gtfsId": "HSL:6150218",
        "name": "Solvik",
        "lat": 60.201517,
        "lon": 24.375928,
        "zoneId": "D",
        "vehicleType": 3,
        "vehicleMode": "BUS"
      },
      {
        "gtfsId": "HSL:6150217",
        "name": "Evitskog",
        "lat": 60.20141,
        "lon": 24.342,
        "zoneId": "D",
        "vehicleType": 3,
        "vehicleMode": "BUS"
      },
      {
        "gtfsId": "HSL:6150216",
        "name": "Evitskogin VPK",
        "lat": 60.20103,
        "lon": 24.33853,
        "zoneId": "D",
        "vehicleType": 3,
        "vehicleMode": "BUS"
      },
      {
        "gtfsId": "HSL:6150215",
        "name": "Evitskogin VPK",
        "lat": 60.200862,
        "lon": 24.338385,
        "zoneId": "D",
        "vehicleType": 3,
        "vehicleMode": "BUS"
      },
      {
        "gtfsId": "HSL:6150225",
        "name": "Karhusuontie",
        "lat": 60.212742,
        "lon": 24.341698,
        "zoneId": "D",
        "vehicleType": 3,
        "vehicleMode": "BUS"
      },
      {
        "gtfsId": "HSL:1465177",
        "name": "Vanha viertotie",
        "lat": 60.213022,
        "lon": 24.879553,
        "zoneId": "B",
        "vehicleType": 3,
        "vehicleMode": "BUS"
      },
      {
        "gtfsId": "HSL:2312219",
        "name": "Kalastajankuja",
        "lat": 60.15334,
        "lon": 24.72924,
        "zoneId": "B",
        "vehicleType": 3,
        "vehicleMode": "BUS"
      },
      {
        "gtfsId": "HSL:6150224",
        "name": "Karhusuontie",
        "lat": 60.211693,
        "lon": 24.341255,
        "zoneId": "D",
        "vehicleType": 3,
        "vehicleMode": "BUS"
      },
      {
        "gtfsId": "HSL:2222234",
        "name": "Aalto-yliopisto (M)",
        "lat": 60.18362,
        "lon": 24.82779,
        "zoneId": "B",
        "vehicleType": 3,
        "vehicleMode": "BUS"
      },
      {
        "gtfsId": "HSL:6150223",
        "name": "Åkervikintie",
        "lat": 60.202485,
        "lon": 24.392585,
        "zoneId": "D",
        "vehicleType": 3,
        "vehicleMode": "BUS"
      },
      {
        "gtfsId": "HSL:6150222",
        "name": "Solvik",
        "lat": 60.202258,
        "lon": 24.374953,
        "zoneId": "D",
        "vehicleType": 3,
        "vehicleMode": "BUS"
      },
      {
        "gtfsId": "HSL:6150221",
        "name": "Louhosmäki",
        "lat": 60.20219,
        "lon": 24.35642,
        "zoneId": "D",
        "vehicleType": 3,
        "vehicleMode": "BUS"
      },
      {
        "gtfsId": "HSL:6150220",
        "name": "Åkervikintie",
        "lat": 60.20238,
        "lon": 24.394094,
        "zoneId": "D",
        "vehicleType": 3,
        "vehicleMode": "BUS"
      },
      {
        "gtfsId": "HSL:2222235",
        "name": "Aalto-yliopisto (M)",
        "lat": 60.183881,
        "lon": 24.828943,
        "zoneId": "B",
        "vehicleType": 3,
        "vehicleMode": "BUS"
      },
      {
        "gtfsId": "HSL:1310602",
        "name": "Lauttasaari",
        "lat": 60.159443,
        "lon": 24.8785,
        "zoneId": "A",
        "vehicleType": 1,
        "vehicleMode": "SUBWAY"
      },
      {
        "gtfsId": "HSL:1310601",
        "name": "Lauttasaari",
        "lat": 60.159362,
        "lon": 24.87857,
        "zoneId": "A",
        "vehicleType": 1,
        "vehicleMode": "SUBWAY"
      },
      {
        "gtfsId": "HSL:1310604",
        "name": "Koivusaari",
        "lat": 60.163618,
        "lon": 24.853666,
        "zoneId": "A",
        "vehicleType": 1,
        "vehicleMode": "SUBWAY"
      },
      {
        "gtfsId": "HSL:1310603",
        "name": "Koivusaari",
        "lat": 60.163538,
        "lon": 24.85361,
        "zoneId": "A",
        "vehicleType": 1,
        "vehicleMode": "SUBWAY"
      },
      {
        "gtfsId": "HSL:2312216",
        "name": "Nuottalahti",
        "lat": 60.15117,
        "lon": 24.73608,
        "zoneId": "B",
        "vehicleType": 3,
        "vehicleMode": "BUS"
      },
      {
        "gtfsId": "HSL:2312217",
        "name": "Nuottalahti",
        "lat": 60.15029,
        "lon": 24.73707,
        "zoneId": "B",
        "vehicleType": 3,
        "vehicleMode": "BUS"
      },
      {
        "gtfsId": "HSL:2312218",
        "name": "Kalastajankuja",
        "lat": 60.15421,
        "lon": 24.72872,
        "zoneId": "B",
        "vehicleType": 3,
        "vehicleMode": "BUS"
      },
      {
        "gtfsId": "HSL:1453189",
        "name": "Itäkeskus (M)",
        "lat": 60.20987,
        "lon": 25.07621,
        "zoneId": "B",
        "vehicleType": 3,
        "vehicleMode": "BUS"
      },
      {
        "gtfsId": "HSL:6150229",
        "name": "Stenbackantie",
        "lat": 60.220405,
        "lon": 24.356558,
        "zoneId": "D",
        "vehicleType": 3,
        "vehicleMode": "BUS"
      },
      {
        "gtfsId": "HSL:6150228",
        "name": "Stenbackantie",
        "lat": 60.220365,
        "lon": 24.357035,
        "zoneId": "D",
        "vehicleType": 3,
        "vehicleMode": "BUS"
      },
      {
        "gtfsId": "HSL:6150227",
        "name": "Sandsdal",
        "lat": 60.21642,
        "lon": 24.345717,
        "zoneId": "D",
        "vehicleType": 3,
        "vehicleMode": "BUS"
      },
      {
        "gtfsId": "HSL:6150226",
        "name": "Sandsdal",
        "lat": 60.216378,
        "lon": 24.345947,
        "zoneId": "D",
        "vehicleType": 3,
        "vehicleMode": "BUS"
      },
      {
        "gtfsId": "HSL:6150236",
        "name": "Solvik",
        "lat": 60.202072,
        "lon": 24.376857,
        "zoneId": "D",
        "vehicleType": 3,
        "vehicleMode": "BUS"
      },
      {
        "gtfsId": "HSL:6150232",
        "name": "Sannas",
        "lat": 60.226347,
        "lon": 24.37974,
        "zoneId": "D",
        "vehicleType": 3,
        "vehicleMode": "BUS"
      },
      {
        "gtfsId": "HSL:6150231",
        "name": "Haapaniementie",
        "lat": 60.225908,
        "lon": 24.369537,
        "zoneId": "D",
        "vehicleType": 3,
        "vehicleMode": "BUS"
      },
      {
        "gtfsId": "HSL:6150230",
        "name": "Haapaniementie",
        "lat": 60.225655,
        "lon": 24.369032,
        "zoneId": "D",
        "vehicleType": 3,
        "vehicleMode": "BUS"
      },
      {
        "gtfsId": "HSL:1453181",
        "name": "Puotinharju",
        "lat": 60.21211,
        "lon": 25.08187,
        "zoneId": "B",
        "vehicleType": 3,
        "vehicleMode": "BUS"
      },
      {
        "gtfsId": "HSL:2312201",
        "name": "Kalatorppa",
        "lat": 60.157855,
        "lon": 24.725891,
        "zoneId": "B",
        "vehicleType": 3,
        "vehicleMode": "BUS"
      },
      {
        "gtfsId": "HSL:1453182",
        "name": "Itäkeskus (M)",
        "lat": 60.21003,
        "lon": 25.0768,
        "zoneId": "B",
        "vehicleType": 3,
        "vehicleMode": "BUS"
      },
      {
        "gtfsId": "HSL:2312202",
        "name": "Kalaonni",
        "lat": 60.156464,
        "lon": 24.725221,
        "zoneId": "B",
        "vehicleType": 3,
        "vehicleMode": "BUS"
      },
      {
        "gtfsId": "HSL:2312203",
        "name": "Tiistiläntörmä",
        "lat": 60.157065,
        "lon": 24.737421,
        "zoneId": "B",
        "vehicleType": 3,
        "vehicleMode": "BUS"
      },
      {
        "gtfsId": "HSL:1453184",
        "name": "Itäkeskus (M)",
        "lat": 60.20952,
        "lon": 25.07627,
        "zoneId": "B",
        "vehicleType": 3,
        "vehicleMode": "BUS"
      },
      {
        "gtfsId": "HSL:2312205",
        "name": "Tiistilänkaari",
        "lat": 60.153906,
        "lon": 24.740077,
        "zoneId": "B",
        "vehicleType": 3,
        "vehicleMode": "BUS"
      },
      {
        "gtfsId": "HSL:1453186",
        "name": "Itäkeskus (M)",
        "lat": 60.20964,
        "lon": 25.07681,
        "zoneId": "B",
        "vehicleType": 3,
        "vehicleMode": "BUS"
      },
      {
        "gtfsId": "HSL:2312206",
        "name": "Tiistilänkuja",
        "lat": 60.15425,
        "lon": 24.73606,
        "zoneId": "B",
        "vehicleType": 3,
        "vehicleMode": "BUS"
      },
      {
        "gtfsId": "HSL:6150239",
        "name": "Sannaksentie",
        "lat": 60.225725,
        "lon": 24.37596,
        "zoneId": "D",
        "vehicleType": 3,
        "vehicleMode": "BUS"
      },
      {
        "gtfsId": "HSL:6150237",
        "name": "Lillängintie",
        "lat": 60.222042,
        "lon": 24.36192,
        "zoneId": "D",
        "vehicleType": 3,
        "vehicleMode": "BUS"
      },
      {
        "gtfsId": "HSL:6150241",
        "name": "Sannaksentie",
        "lat": 60.225717,
        "lon": 24.376338,
        "zoneId": "D",
        "vehicleType": 3,
        "vehicleMode": "BUS"
      },
      {
        "gtfsId": "HSL:6150240",
        "name": "Lillängintie",
        "lat": 60.221885,
        "lon": 24.362633,
        "zoneId": "D",
        "vehicleType": 3,
        "vehicleMode": "BUS"
      },
      {
        "gtfsId": "HSL:1285102",
        "name": "Veräjämäki",
        "lat": 60.231251,
        "lon": 24.975103,
        "zoneId": "B",
        "vehicleType": 3,
        "vehicleMode": "BUS"
      },
      {
        "gtfsId": "HSL:1285101",
        "name": "Veräjämäki",
        "lat": 60.2313,
        "lon": 24.975489,
        "zoneId": "B",
        "vehicleType": 3,
        "vehicleMode": "BUS"
      },
      {
        "gtfsId": "HSL:1285104",
        "name": "Oulunkylän asema",
        "lat": 60.228763,
        "lon": 24.968268,
        "zoneId": "B",
        "vehicleType": 3,
        "vehicleMode": "BUS"
      },
      {
        "gtfsId": "HSL:1285103",
        "name": "Oulunkylän asema",
        "lat": 60.228701,
        "lon": 24.967974,
        "zoneId": "B",
        "vehicleType": 3,
        "vehicleMode": "BUS"
      },
      {
        "gtfsId": "HSL:1465148",
        "name": "Valimo",
        "lat": 60.22054,
        "lon": 24.87679,
        "zoneId": "B",
        "vehicleType": 3,
        "vehicleMode": "BUS"
      },
      {
        "gtfsId": "HSL:1465147",
        "name": "Valimotie 15",
        "lat": 60.21922,
        "lon": 24.87837,
        "zoneId": "B",
        "vehicleType": 3,
        "vehicleMode": "BUS"
      },
      {
        "gtfsId": "HSL:1465146",
        "name": "Valimotie 15",
        "lat": 60.21857,
        "lon": 24.87877,
        "zoneId": "B",
        "vehicleType": 3,
        "vehicleMode": "BUS"
      },
      {
        "gtfsId": "HSL:1465145",
        "name": "Valimotie",
        "lat": 60.21562,
        "lon": 24.87617,
        "zoneId": "B",
        "vehicleType": 3,
        "vehicleMode": "BUS"
      },
      {
        "gtfsId": "HSL:1465143",
        "name": "Höyläämötie",
        "lat": 60.214064,
        "lon": 24.880445,
        "zoneId": "B",
        "vehicleType": 3,
        "vehicleMode": "BUS"
      },
      {
        "gtfsId": "HSL:2222268",
        "name": "Tietäjä",
        "lat": 60.18712,
        "lon": 24.80903,
        "zoneId": "B",
        "vehicleType": 3,
        "vehicleMode": "BUS"
      },
      {
        "gtfsId": "HSL:2222201",
        "name": "Otaniemensilta",
        "lat": 60.18023,
        "lon": 24.8376,
        "zoneId": "B",
        "vehicleType": 3,
        "vehicleMode": "BUS"
      },
      {
        "gtfsId": "HSL:2222203",
        "name": "Otaranta",
        "lat": 60.18197,
        "lon": 24.83372,
        "zoneId": "B",
        "vehicleType": 3,
        "vehicleMode": "BUS"
      },
      {
        "gtfsId": "HSL:2222202",
        "name": "Otaniemensilta",
        "lat": 60.1798,
        "lon": 24.83641,
        "zoneId": "B",
        "vehicleType": 3,
        "vehicleMode": "BUS"
      },
      {
        "gtfsId": "HSL:2222205",
        "name": "Hanasaari",
        "lat": 60.16646,
        "lon": 24.84158,
        "zoneId": "B",
        "vehicleType": 3,
        "vehicleMode": "BUS"
      },
      {
        "gtfsId": "HSL:2222204",
        "name": "Otaranta",
        "lat": 60.18274,
        "lon": 24.83212,
        "zoneId": "B",
        "vehicleType": 3,
        "vehicleMode": "BUS"
      },
      {
        "gtfsId": "HSL:2222207",
        "name": "Sähkömies",
        "lat": 60.18909,
        "lon": 24.82975,
        "zoneId": "B",
        "vehicleType": 3,
        "vehicleMode": "BUS"
      },
      {
        "gtfsId": "HSL:2222206",
        "name": "Otakaari",
        "lat": 60.18701,
        "lon": 24.82762,
        "zoneId": "B",
        "vehicleType": 3,
        "vehicleMode": "BUS"
      },
      {
        "gtfsId": "HSL:2222209",
        "name": "Teekkarikylä",
        "lat": 60.18833,
        "lon": 24.83492,
        "zoneId": "B",
        "vehicleType": 3,
        "vehicleMode": "BUS"
      },
      {
        "gtfsId": "HSL:2222208",
        "name": "Teekkarikylä",
        "lat": 60.18862,
        "lon": 24.83449,
        "zoneId": "B",
        "vehicleType": 3,
        "vehicleMode": "BUS"
      },
      {
        "gtfsId": "HSL:1285159",
        "name": "Käpytie",
        "lat": 60.22592,
        "lon": 24.96789,
        "zoneId": "B",
        "vehicleType": 3,
        "vehicleMode": "BUS"
      },
      {
        "gtfsId": "HSL:1285158",
        "name": "Käpytie",
        "lat": 60.22632,
        "lon": 24.96805,
        "zoneId": "B",
        "vehicleType": 3,
        "vehicleMode": "BUS"
      },
      {
        "gtfsId": "HSL:2222210",
        "name": "Teekkarikylä",
        "lat": 60.187376,
        "lon": 24.833901,
        "zoneId": "B",
        "vehicleType": 3,
        "vehicleMode": "BUS"
      },
      {
        "gtfsId": "HSL:6150202",
        "name": "Östermalmintie",
        "lat": 60.187337,
        "lon": 24.298318,
        "zoneId": "D",
        "vehicleType": 3,
        "vehicleMode": "BUS"
      },
      {
        "gtfsId": "HSL:2222212",
        "name": "Aalto-yliopisto (M)",
        "lat": 60.183766,
        "lon": 24.828012,
        "zoneId": "B",
        "vehicleType": 3,
        "vehicleMode": "BUS"
      },
      {
        "gtfsId": "HSL:6150201",
        "name": "Östermalmintie",
        "lat": 60.18728,
        "lon": 24.296465,
        "zoneId": "D",
        "vehicleType": 3,
        "vehicleMode": "BUS"
      },
      {
        "gtfsId": "HSL:2222211",
        "name": "Aalto-yliopisto (M)",
        "lat": 60.183984,
        "lon": 24.829145,
        "zoneId": "B",
        "vehicleType": 3,
        "vehicleMode": "BUS"
      },
      {
        "gtfsId": "HSL:2222214",
        "name": "Tekniikantie",
        "lat": 60.1807,
        "lon": 24.82479,
        "zoneId": "B",
        "vehicleType": 3,
        "vehicleMode": "BUS"
      },
      {
        "gtfsId": "HSL:2222213",
        "name": "Otakaari",
        "lat": 60.187099,
        "lon": 24.827559,
        "zoneId": "B",
        "vehicleType": 3,
        "vehicleMode": "BUS"
      },
      {
        "gtfsId": "HSL:2222216",
        "name": "Vuorimies",
        "lat": 60.18244,
        "lon": 24.82595,
        "zoneId": "B",
        "vehicleType": 3,
        "vehicleMode": "BUS"
      },
      {
        "gtfsId": "HSL:2222215",
        "name": "Vuorimies",
        "lat": 60.18236,
        "lon": 24.82545,
        "zoneId": "B",
        "vehicleType": 3,
        "vehicleMode": "BUS"
      },
      {
        "gtfsId": "HSL:6150214",
        "name": "Evitskog",
        "lat": 60.200958,
        "lon": 24.340765,
        "zoneId": "D",
        "vehicleType": 3,
        "vehicleMode": "BUS"
      },
      {
        "gtfsId": "HSL:2222223",
        "name": "Tietotie",
        "lat": 60.184969,
        "lon": 24.819846,
        "zoneId": "B",
        "vehicleType": 3,
        "vehicleMode": "BUS"
      },
      {
        "gtfsId": "HSL:6150212",
        "name": "Bakträsk",
        "lat": 60.19921,
        "lon": 24.37971,
        "zoneId": "D",
        "vehicleType": 3,
        "vehicleMode": "BUS"
      },
      {
        "gtfsId": "HSL:6150211",
        "name": "Bakträsk",
        "lat": 60.19985,
        "lon": 24.378615,
        "zoneId": "D",
        "vehicleType": 3,
        "vehicleMode": "BUS"
      },
      {
        "gtfsId": "HSL:2222225",
        "name": "Innopoli",
        "lat": 60.18609,
        "lon": 24.81291,
        "zoneId": "B",
        "vehicleType": 3,
        "vehicleMode": "BUS"
      },
      {
        "gtfsId": "HSL:2222224",
        "name": "Tietotie",
        "lat": 60.18517,
        "lon": 24.82042,
        "zoneId": "B",
        "vehicleType": 3,
        "vehicleMode": "BUS"
      },
      {
        "gtfsId": "HSL:2222227",
        "name": "Sähkömies",
        "lat": 60.18963,
        "lon": 24.82959,
        "zoneId": "B",
        "vehicleType": 3,
        "vehicleMode": "BUS"
      },
      {
        "gtfsId": "HSL:2222226",
        "name": "Innopoli",
        "lat": 60.185,
        "lon": 24.81447,
        "zoneId": "B",
        "vehicleType": 3,
        "vehicleMode": "BUS"
      },
      {
        "gtfsId": "HSL:1453111",
        "name": "Rantakartanontie",
        "lat": 60.21633,
        "lon": 25.09587,
        "zoneId": "B",
        "vehicleType": 3,
        "vehicleMode": "BUS"
      },
      {
        "gtfsId": "HSL:1453112",
        "name": "Itäkeskus (M)",
        "lat": 60.210165,
        "lon": 25.077287,
        "zoneId": "B",
        "vehicleType": 3,
        "vehicleMode": "BUS"
      },
      {
        "gtfsId": "HSL:1453113",
        "name": "Orvokkitie",
        "lat": 60.217232,
        "lon": 25.089587,
        "zoneId": "B",
        "vehicleType": 3,
        "vehicleMode": "BUS"
      },
      {
        "gtfsId": "HSL:1453114",
        "name": "Itäkeskus (M)",
        "lat": 60.21033,
        "lon": 25.07785,
        "zoneId": "B",
        "vehicleType": 3,
        "vehicleMode": "BUS"
      },
      {
        "gtfsId": "HSL:1453116",
        "name": "Itäkeskus (M)",
        "lat": 60.21035,
        "lon": 25.07629,
        "zoneId": "B",
        "vehicleType": 3,
        "vehicleMode": "BUS"
      },
      {
        "gtfsId": "HSL:1453117",
        "name": "Puotinharju",
        "lat": 60.21156,
        "lon": 25.08114,
        "zoneId": "B",
        "vehicleType": 3,
        "vehicleMode": "BUS"
      },
      {
        "gtfsId": "HSL:1453118",
        "name": "Puotinharju",
        "lat": 60.21144,
        "lon": 25.079953,
        "zoneId": "B",
        "vehicleType": 3,
        "vehicleMode": "BUS"
      },
      {
        "gtfsId": "HSL:1453119",
        "name": "Vanhanlinnantie",
        "lat": 60.21466,
        "lon": 25.08826,
        "zoneId": "B",
        "vehicleType": 3,
        "vehicleMode": "BUS"
      },
      {
        "gtfsId": "HSL:1453110",
        "name": "Arhotie",
        "lat": 60.21752,
        "lon": 25.08351,
        "zoneId": "B",
        "vehicleType": 3,
        "vehicleMode": "BUS"
      },
      {
        "gtfsId": "HSL:1285164",
        "name": "Aidasmäki",
        "lat": 60.22964,
        "lon": 24.97434,
        "zoneId": "B",
        "vehicleType": 3,
        "vehicleMode": "BUS"
      },
      {
        "gtfsId": "HSL:6300021",
        "name": "Riihisuontie",
        "lat": 60.173292,
        "lon": 24.101885,
        "zoneId": "D",
        "vehicleType": 3,
        "vehicleMode": "BUS"
      },
      {
        "gtfsId": "HSL:6300022",
        "name": "Riihisuontie",
        "lat": 60.173231,
        "lon": 24.100927,
        "zoneId": "D",
        "vehicleType": 3,
        "vehicleMode": "BUS"
      },
      {
        "gtfsId": "HSL:1285163",
        "name": "Veräjänkorva",
        "lat": 60.22675,
        "lon": 24.97256,
        "zoneId": "B",
        "vehicleType": 3,
        "vehicleMode": "BUS"
      },
      {
        "gtfsId": "HSL:1285166",
        "name": "Myllypellontie",
        "lat": 60.23337,
        "lon": 24.978521,
        "zoneId": "B",
        "vehicleType": 3,
        "vehicleMode": "BUS"
      },
      {
        "gtfsId": "HSL:1453103",
        "name": "Orvokkitie",
        "lat": 60.217003,
        "lon": 25.089523,
        "zoneId": "B",
        "vehicleType": 3,
        "vehicleMode": "BUS"
      },
      {
        "gtfsId": "HSL:1285165",
        "name": "Aidasmäki",
        "lat": 60.22927,
        "lon": 24.9736,
        "zoneId": "B",
        "vehicleType": 3,
        "vehicleMode": "BUS"
      },
      {
        "gtfsId": "HSL:1453104",
        "name": "Itäkeskus (M)",
        "lat": 60.21008,
        "lon": 25.0766,
        "zoneId": "B",
        "vehicleType": 3,
        "vehicleMode": "BUS"
      },
      {
        "gtfsId": "HSL:6300025",
        "name": "Storpotten",
        "lat": 60.172955,
        "lon": 24.128346,
        "zoneId": "D",
        "vehicleType": 3,
        "vehicleMode": "BUS"
      },
      {
        "gtfsId": "HSL:6300026",
        "name": "Storpotten",
        "lat": 60.173247,
        "lon": 24.126355,
        "zoneId": "D",
        "vehicleType": 3,
        "vehicleMode": "BUS"
      },
      {
        "gtfsId": "HSL:6300023",
        "name": "Solbacka",
        "lat": 60.175065,
        "lon": 24.138551,
        "zoneId": "D",
        "vehicleType": 3,
        "vehicleMode": "BUS"
      },
      {
        "gtfsId": "HSL:6300024",
        "name": "Solbacka",
        "lat": 60.175433,
        "lon": 24.14095,
        "zoneId": "D",
        "vehicleType": 3,
        "vehicleMode": "BUS"
      },
      {
        "gtfsId": "HSL:1453107",
        "name": "Puotila (M)",
        "lat": 60.21557,
        "lon": 25.09193,
        "zoneId": "B",
        "vehicleType": 3,
        "vehicleMode": "BUS"
      },
      {
        "gtfsId": "HSL:1453109",
        "name": "Arhotie",
        "lat": 60.21775,
        "lon": 25.08378,
        "zoneId": "B",
        "vehicleType": 3,
        "vehicleMode": "BUS"
      },
      {
        "gtfsId": "HSL:1285160",
        "name": "Kirkkoherrantie",
        "lat": 60.22494,
        "lon": 24.97197,
        "zoneId": "B",
        "vehicleType": 3,
        "vehicleMode": "BUS"
      },
      {
        "gtfsId": "HSL:1285162",
        "name": "Veräjänkorva",
        "lat": 60.22654,
        "lon": 24.9729,
        "zoneId": "B",
        "vehicleType": 3,
        "vehicleMode": "BUS"
      },
      {
        "gtfsId": "HSL:1285161",
        "name": "Kirkkoherrantie",
        "lat": 60.22493,
        "lon": 24.97096,
        "zoneId": "B",
        "vehicleType": 3,
        "vehicleMode": "BUS"
      },
      {
        "gtfsId": "HSL:6300010",
        "name": "Hollstens",
        "lat": 60.174555,
        "lon": 24.093479,
        "zoneId": "D",
        "vehicleType": 3,
        "vehicleMode": "BUS"
      },
      {
        "gtfsId": "HSL:6300011",
        "name": "Hollstens",
        "lat": 60.176005,
        "lon": 24.091042,
        "zoneId": "D",
        "vehicleType": 3,
        "vehicleMode": "BUS"
      },
      {
        "gtfsId": "HSL:6300014",
        "name": "Lappers",
        "lat": 60.173985,
        "lon": 24.109245,
        "zoneId": "D",
        "vehicleType": 3,
        "vehicleMode": "BUS"
      },
      {
        "gtfsId": "HSL:6300015",
        "name": "Lappers",
        "lat": 60.173856,
        "lon": 24.107636,
        "zoneId": "D",
        "vehicleType": 3,
        "vehicleMode": "BUS"
      },
      {
        "gtfsId": "HSL:6300018",
        "name": "Myransintie",
        "lat": 60.176004,
        "lon": 24.062917,
        "zoneId": "D",
        "vehicleType": 3,
        "vehicleMode": "BUS"
      },
      {
        "gtfsId": "HSL:6300019",
        "name": "Myransintie",
        "lat": 60.176033,
        "lon": 24.061181,
        "zoneId": "D",
        "vehicleType": 3,
        "vehicleMode": "BUS"
      },
      {
        "gtfsId": "HSL:6300016",
        "name": "Lillkråkas",
        "lat": 60.176563,
        "lon": 24.076933,
        "zoneId": "D",
        "vehicleType": 3,
        "vehicleMode": "BUS"
      },
      {
        "gtfsId": "HSL:6300017",
        "name": "Lillkråkas",
        "lat": 60.176911,
        "lon": 24.078211,
        "zoneId": "D",
        "vehicleType": 3,
        "vehicleMode": "BUS"
      },
      {
        "gtfsId": "HSL:6300007",
        "name": "Bocksintie",
        "lat": 60.178962,
        "lon": 24.04697,
        "zoneId": "D",
        "vehicleType": 3,
        "vehicleMode": "BUS"
      },
      {
        "gtfsId": "HSL:6300008",
        "name": "Flytintie",
        "lat": 60.174069,
        "lon": 24.118695,
        "zoneId": "D",
        "vehicleType": 3,
        "vehicleMode": "BUS"
      },
      {
        "gtfsId": "HSL:6300006",
        "name": "Bocksintie",
        "lat": 60.178044,
        "lon": 24.049176,
        "zoneId": "D",
        "vehicleType": 3,
        "vehicleMode": "BUS"
      },
      {
        "gtfsId": "HSL:6300009",
        "name": "Flytintie",
        "lat": 60.173839,
        "lon": 24.120039,
        "zoneId": "D",
        "vehicleType": 3,
        "vehicleMode": "BUS"
      },
      {
        "gtfsId": "HSL:1140436",
        "name": "Ooppera",
        "lat": 60.18228,
        "lon": 24.92659,
        "zoneId": "A",
        "vehicleType": 0,
        "vehicleMode": "TRAM"
      },
      {
        "gtfsId": "HSL:1140439",
        "name": "Töölön halli",
        "lat": 60.18486,
        "lon": 24.92255,
        "zoneId": "A",
        "vehicleType": 0,
        "vehicleMode": "TRAM"
      },
      {
        "gtfsId": "HSL:1285184",
        "name": "Kestikuja",
        "lat": 60.23169,
        "lon": 24.97747,
        "zoneId": "B",
        "vehicleType": 3,
        "vehicleMode": "BUS"
      },
      {
        "gtfsId": "HSL:1140437",
        "name": "Ooppera",
        "lat": 60.18199,
        "lon": 24.92695,
        "zoneId": "A",
        "vehicleType": 0,
        "vehicleMode": "TRAM"
      },
      {
        "gtfsId": "HSL:1140438",
        "name": "Töölön halli",
        "lat": 60.18575,
        "lon": 24.9213,
        "zoneId": "A",
        "vehicleType": 0,
        "vehicleMode": "TRAM"
      },
      {
        "gtfsId": "HSL:1285183",
        "name": "Kestikuja",
        "lat": 60.23209,
        "lon": 24.97778,
        "zoneId": "B",
        "vehicleType": 3,
        "vehicleMode": "BUS"
      },
      {
        "gtfsId": "HSL:1465136",
        "name": "Atomitie",
        "lat": 60.22436,
        "lon": 24.8672,
        "zoneId": "B",
        "vehicleType": 3,
        "vehicleMode": "BUS"
      },
      {
        "gtfsId": "HSL:1465134",
        "name": "Meijeritie",
        "lat": 60.2258,
        "lon": 24.8696,
        "zoneId": "B",
        "vehicleType": 3,
        "vehicleMode": "BUS"
      },
      {
        "gtfsId": "HSL:1465133",
        "name": "Meijeritie",
        "lat": 60.22509,
        "lon": 24.86806,
        "zoneId": "B",
        "vehicleType": 3,
        "vehicleMode": "BUS"
      },
      {
        "gtfsId": "HSL:1465131",
        "name": "Marttila",
        "lat": 60.22716,
        "lon": 24.87217,
        "zoneId": "B",
        "vehicleType": 3,
        "vehicleMode": "BUS"
      },
      {
        "gtfsId": "HSL:1140440",
        "name": "Kansaneläkelaitos",
        "lat": 60.18868,
        "lon": 24.91911,
        "zoneId": "A",
        "vehicleType": 0,
        "vehicleMode": "TRAM"
      },
      {
        "gtfsId": "HSL:1140441",
        "name": "Kansaneläkelaitos",
        "lat": 60.18733,
        "lon": 24.91918,
        "zoneId": "A",
        "vehicleType": 0,
        "vehicleMode": "TRAM"
      },
      {
        "gtfsId": "HSL:1140446",
        "name": "Kansaneläkelaitos",
        "lat": 60.18874,
        "lon": 24.91779,
        "zoneId": "A",
        "vehicleType": 0,
        "vehicleMode": "TRAM"
      },
      {
        "gtfsId": "HSL:1140447",
        "name": "Töölöntori",
        "lat": 60.17971,
        "lon": 24.92371,
        "zoneId": "A",
        "vehicleType": 0,
        "vehicleMode": "TRAM"
      },
      {
        "gtfsId": "HSL:1140449",
        "name": "Töölöntori",
        "lat": 60.17956,
        "lon": 24.92358,
        "zoneId": "A",
        "vehicleType": 0,
        "vehicleMode": "TRAM"
      },
      {
        "gtfsId": "HSL:1050401",
        "name": "Eiran sairaala",
        "lat": 60.157988,
        "lon": 24.940139,
        "zoneId": "A",
        "vehicleType": 0,
        "vehicleMode": "TRAM"
      },
      {
        "gtfsId": "HSL:1543181",
        "name": "Eteläreimarintie",
        "lat": 60.2103,
        "lon": 25.17386,
        "zoneId": "B",
        "vehicleType": 3,
        "vehicleMode": "BUS"
      },
      {
        "gtfsId": "HSL:1140450",
        "name": "Ooppera",
        "lat": 60.18205,
        "lon": 24.92821,
        "zoneId": "A",
        "vehicleType": 0,
        "vehicleMode": "TRAM"
      },
      {
        "gtfsId": "HSL:1140453",
        "name": "Kaupunginpuutarha",
        "lat": 60.184192,
        "lon": 24.931828,
        "zoneId": "A",
        "vehicleType": 0,
        "vehicleMode": "TRAM"
      },
      {
        "gtfsId": "HSL:1140451",
        "name": "Ooppera",
        "lat": 60.18195,
        "lon": 24.92785,
        "zoneId": "A",
        "vehicleType": 0,
        "vehicleMode": "TRAM"
      },
      {
        "gtfsId": "HSL:1140452",
        "name": "Kaupunginpuutarha",
        "lat": 60.18445,
        "lon": 24.93198,
        "zoneId": "A",
        "vehicleType": 0,
        "vehicleMode": "TRAM"
      },
      {
        "gtfsId": "HSL:1453134",
        "name": "Puotila (M)",
        "lat": 60.21477,
        "lon": 25.09232,
        "zoneId": "B",
        "vehicleType": 3,
        "vehicleMode": "BUS"
      },
      {
        "gtfsId": "HSL:1453138",
        "name": "Puotila (M)",
        "lat": 60.21533,
        "lon": 25.09017,
        "zoneId": "B",
        "vehicleType": 3,
        "vehicleMode": "BUS"
      },
      {
        "gtfsId": "HSL:4660294",
        "name": "Kanerva",
        "lat": 60.28757,
        "lon": 25.07367,
        "zoneId": "C",
        "vehicleType": 3,
        "vehicleMode": "BUS"
      },
      {
        "gtfsId": "HSL:4660296",
        "name": "Sammaltie",
        "lat": 60.28518,
        "lon": 25.06884,
        "zoneId": "C",
        "vehicleType": 3,
        "vehicleMode": "BUS"
      },
      {
        "gtfsId": "HSL:4660298",
        "name": "Kunnaantie",
        "lat": 60.29531,
        "lon": 25.06689,
        "zoneId": "C",
        "vehicleType": 3,
        "vehicleMode": "BUS"
      },
      {
        "gtfsId": "HSL:4660297",
        "name": "Kanerva",
        "lat": 60.2872,
        "lon": 25.072,
        "zoneId": "C",
        "vehicleType": 3,
        "vehicleMode": "BUS"
      },
      {
        "gtfsId": "HSL:1465112",
        "name": "Takkatie",
        "lat": 60.22245,
        "lon": 24.86279,
        "zoneId": "B",
        "vehicleType": 3,
        "vehicleMode": "BUS"
      },
      {
        "gtfsId": "HSL:4660299",
        "name": "Kunnaantie",
        "lat": 60.29509,
        "lon": 25.06703,
        "zoneId": "C",
        "vehicleType": 3,
        "vehicleMode": "BUS"
      },
      {
        "gtfsId": "HSL:1465111",
        "name": "Takkatie",
        "lat": 60.22108,
        "lon": 24.86157,
        "zoneId": "B",
        "vehicleType": 3,
        "vehicleMode": "BUS"
      },
      {
        "gtfsId": "HSL:1453130",
        "name": "Itäkeskus (M)",
        "lat": 60.20975,
        "lon": 25.07745,
        "zoneId": "B",
        "vehicleType": 3,
        "vehicleMode": "BUS"
      },
      {
        "gtfsId": "HSL:1453132",
        "name": "Itäkeskus (M)",
        "lat": 60.209881,
        "lon": 25.078219,
        "zoneId": "B",
        "vehicleType": 3,
        "vehicleMode": "BUS"
      },
      {
        "gtfsId": "HSL:1453122",
        "name": "Korsholmantie",
        "lat": 60.21348,
        "lon": 25.08321,
        "zoneId": "B",
        "vehicleType": 3,
        "vehicleMode": "BUS"
      },
      {
        "gtfsId": "HSL:1453123",
        "name": "Arhotie",
        "lat": 60.218238,
        "lon": 25.085768,
        "zoneId": "B",
        "vehicleType": 3,
        "vehicleMode": "BUS"
      },
      {
        "gtfsId": "HSL:1453125",
        "name": "Nyytorpinpolku",
        "lat": 60.218642,
        "lon": 25.093242,
        "zoneId": "B",
        "vehicleType": 3,
        "vehicleMode": "BUS"
      },
      {
        "gtfsId": "HSL:1453126",
        "name": "Itäkeskus (M)",
        "lat": 60.20942,
        "lon": 25.07634,
        "zoneId": "B",
        "vehicleType": 3,
        "vehicleMode": "BUS"
      },
      {
        "gtfsId": "HSL:1453128",
        "name": "Itäkeskus (M)",
        "lat": 60.20956,
        "lon": 25.07691,
        "zoneId": "B",
        "vehicleType": 3,
        "vehicleMode": "BUS"
      },
      {
        "gtfsId": "HSL:1465106",
        "name": "Takomokuja",
        "lat": 60.220779,
        "lon": 24.876585,
        "zoneId": "B",
        "vehicleType": 3,
        "vehicleMode": "BUS"
      },
      {
        "gtfsId": "HSL:1465105",
        "name": "Talin siirt.puutarha",
        "lat": 60.21991,
        "lon": 24.86304,
        "zoneId": "B",
        "vehicleType": 3,
        "vehicleMode": "BUS"
      },
      {
        "gtfsId": "HSL:1465104",
        "name": "Takomotie",
        "lat": 60.217308,
        "lon": 24.869366,
        "zoneId": "B",
        "vehicleType": 3,
        "vehicleMode": "BUS"
      },
      {
        "gtfsId": "HSL:1465103",
        "name": "Takomotie",
        "lat": 60.21776,
        "lon": 24.86884,
        "zoneId": "B",
        "vehicleType": 3,
        "vehicleMode": "BUS"
      },
      {
        "gtfsId": "HSL:1465102",
        "name": "Valimotie",
        "lat": 60.214819,
        "lon": 24.876593,
        "zoneId": "B",
        "vehicleType": 3,
        "vehicleMode": "BUS"
      },
      {
        "gtfsId": "HSL:1465101",
        "name": "Valimotie",
        "lat": 60.21574,
        "lon": 24.87448,
        "zoneId": "B",
        "vehicleType": 3,
        "vehicleMode": "BUS"
      },
      {
        "gtfsId": "HSL:1465100",
        "name": "Henrikintie",
        "lat": 60.224845,
        "lon": 24.850474,
        "zoneId": "B",
        "vehicleType": 3,
        "vehicleMode": "BUS"
      },
      {
        "gtfsId": "HSL:1453120",
        "name": "Vanhanlinnantie",
        "lat": 60.21479,
        "lon": 25.0882,
        "zoneId": "B",
        "vehicleType": 3,
        "vehicleMode": "BUS"
      },
      {
        "gtfsId": "HSL:1453121",
        "name": "Vanhanlinnantie",
        "lat": 60.21472,
        "lon": 25.08581,
        "zoneId": "B",
        "vehicleType": 3,
        "vehicleMode": "BUS"
      },
      {
        "gtfsId": "HSL:1050432",
        "name": "Hietalahdentori",
        "lat": 60.162237,
        "lon": 24.931177,
        "zoneId": "A",
        "vehicleType": 0,
        "vehicleMode": "TRAM"
      },
      {
        "gtfsId": "HSL:9512005",
        "name": "Vähänummentie",
        "lat": 60.496901,
        "lon": 25.092005,
        "zoneId": "D",
        "vehicleType": 3,
        "vehicleMode": "BUS"
      },
      {
        "gtfsId": "HSL:2614237",
        "name": "Soliseva",
        "lat": 60.19468,
        "lon": 24.68226,
        "zoneId": "C",
        "vehicleType": 3,
        "vehicleMode": "BUS"
      },
      {
        "gtfsId": "HSL:9512002",
        "name": "Peltola",
        "lat": 60.493273,
        "lon": 25.091476,
        "zoneId": "D",
        "vehicleType": 3,
        "vehicleMode": "BUS"
      },
      {
        "gtfsId": "HSL:9512001",
        "name": "Mittarikatu",
        "lat": 60.490279,
        "lon": 25.091075,
        "zoneId": "D",
        "vehicleType": 3,
        "vehicleMode": "BUS"
      },
      {
        "gtfsId": "HSL:9512004",
        "name": "Hölkkäpolku",
        "lat": 60.497842,
        "lon": 25.091761,
        "zoneId": "D",
        "vehicleType": 3,
        "vehicleMode": "BUS"
      },
      {
        "gtfsId": "HSL:9512003",
        "name": "Anttila",
        "lat": 60.494203,
        "lon": 25.091896,
        "zoneId": "D",
        "vehicleType": 3,
        "vehicleMode": "BUS"
      },
      {
        "gtfsId": "HSL:9512000",
        "name": "Mittarikatu",
        "lat": 60.489363,
        "lon": 25.091271,
        "zoneId": "D",
        "vehicleType": 3,
        "vehicleMode": "BUS"
      },
      {
        "gtfsId": "HSL:2614245",
        "name": "Riimukallio",
        "lat": 60.19405,
        "lon": 24.67816,
        "zoneId": "C",
        "vehicleType": 3,
        "vehicleMode": "BUS"
      },
      {
        "gtfsId": "HSL:9640210",
        "name": "Vetikontie",
        "lat": 60.450335,
        "lon": 24.976263,
        "zoneId": "D",
        "vehicleType": 3,
        "vehicleMode": "BUS"
      },
      {
        "gtfsId": "HSL:2614246",
        "name": "Soliseva",
        "lat": 60.19475,
        "lon": 24.68208,
        "zoneId": "C",
        "vehicleType": 3,
        "vehicleMode": "BUS"
      },
      {
        "gtfsId": "HSL:9640211",
        "name": "Vuohikkaanoja",
        "lat": 60.434771,
        "lon": 24.986197,
        "zoneId": "D",
        "vehicleType": 3,
        "vehicleMode": "BUS"
      },
      {
        "gtfsId": "HSL:9640212",
        "name": "Terrisuo",
        "lat": 60.478303,
        "lon": 24.953405,
        "zoneId": "D",
        "vehicleType": 3,
        "vehicleMode": "BUS"
      },
      {
        "gtfsId": "HSL:9640213",
        "name": "Terrisuo",
        "lat": 60.478699,
        "lon": 24.951962,
        "zoneId": "D",
        "vehicleType": 3,
        "vehicleMode": "BUS"
      },
      {
        "gtfsId": "HSL:1050439",
        "name": "Aleksant. teatteri",
        "lat": 60.16318,
        "lon": 24.93368,
        "zoneId": "A",
        "vehicleType": 0,
        "vehicleMode": "TRAM"
      },
      {
        "gtfsId": "HSL:9640207",
        "name": "Tienhaara",
        "lat": 60.441703,
        "lon": 24.975813,
        "zoneId": "D",
        "vehicleType": 3,
        "vehicleMode": "BUS"
      },
      {
        "gtfsId": "HSL:9640208",
        "name": "Tienhaara",
        "lat": 60.442609,
        "lon": 24.974444,
        "zoneId": "D",
        "vehicleType": 3,
        "vehicleMode": "BUS"
      },
      {
        "gtfsId": "HSL:9640209",
        "name": "Vetikko",
        "lat": 60.451385,
        "lon": 24.97701,
        "zoneId": "D",
        "vehicleType": 3,
        "vehicleMode": "BUS"
      },
      {
        "gtfsId": "HSL:1250501",
        "name": "Käpylä",
        "lat": 60.220358,
        "lon": 24.946913,
        "zoneId": "A",
        "vehicleType": 109,
        "vehicleMode": "RAIL"
      },
      {
        "gtfsId": "HSL:9640203",
        "name": "Metsämaa",
        "lat": 60.44679,
        "lon": 24.973925,
        "zoneId": "D",
        "vehicleType": 3,
        "vehicleMode": "BUS"
      },
      {
        "gtfsId": "HSL:1351107",
        "name": "Raiviontie",
        "lat": 60.24962,
        "lon": 24.94126,
        "zoneId": "B",
        "vehicleType": 3,
        "vehicleMode": "BUS"
      },
      {
        "gtfsId": "HSL:1050412",
        "name": "Viiskulma",
        "lat": 60.16089,
        "lon": 24.94178,
        "zoneId": "A",
        "vehicleType": 0,
        "vehicleMode": "TRAM"
      },
      {
        "gtfsId": "HSL:9640204",
        "name": "Suotorppa",
        "lat": 60.457873,
        "lon": 24.984671,
        "zoneId": "D",
        "vehicleType": 3,
        "vehicleMode": "BUS"
      },
      {
        "gtfsId": "HSL:1351108",
        "name": "Raiviontie",
        "lat": 60.24969,
        "lon": 24.94116,
        "zoneId": "B",
        "vehicleType": 3,
        "vehicleMode": "BUS"
      },
      {
        "gtfsId": "HSL:1351105",
        "name": "Kaskenpolttajantie",
        "lat": 60.24935,
        "lon": 24.93492,
        "zoneId": "B",
        "vehicleType": 3,
        "vehicleMode": "BUS"
      },
      {
        "gtfsId": "HSL:9640205",
        "name": "Suotorppa",
        "lat": 60.456697,
        "lon": 24.982749,
        "zoneId": "D",
        "vehicleType": 3,
        "vehicleMode": "BUS"
      },
      {
        "gtfsId": "HSL:1351106",
        "name": "Kaskenpolttajantie",
        "lat": 60.24933,
        "lon": 24.93426,
        "zoneId": "B",
        "vehicleType": 3,
        "vehicleMode": "BUS"
      },
      {
        "gtfsId": "HSL:9640206",
        "name": "Terrisuon kuntaraja",
        "lat": 60.471909,
        "lon": 24.945694,
        "zoneId": "D",
        "vehicleType": 3,
        "vehicleMode": "BUS"
      },
      {
        "gtfsId": "HSL:1050416",
        "name": "Perämiehenkatu",
        "lat": 60.157802,
        "lon": 24.935992,
        "zoneId": "A",
        "vehicleType": 0,
        "vehicleMode": "TRAM"
      },
      {
        "gtfsId": "HSL:1050415",
        "name": "Perämiehenkatu",
        "lat": 60.15783,
        "lon": 24.93573,
        "zoneId": "A",
        "vehicleType": 0,
        "vehicleMode": "TRAM"
      },
      {
        "gtfsId": "HSL:9640200",
        "name": "Kolistimenmäki",
        "lat": 60.438756,
        "lon": 24.980235,
        "zoneId": "D",
        "vehicleType": 3,
        "vehicleMode": "BUS"
      },
      {
        "gtfsId": "HSL:1351109",
        "name": "Raiviontie",
        "lat": 60.249277,
        "lon": 24.942139,
        "zoneId": "B",
        "vehicleType": 3,
        "vehicleMode": "BUS"
      },
      {
        "gtfsId": "HSL:9640201",
        "name": "Kolistimenmäki",
        "lat": 60.439897,
        "lon": 24.978521,
        "zoneId": "D",
        "vehicleType": 3,
        "vehicleMode": "BUS"
      },
      {
        "gtfsId": "HSL:1050414",
        "name": "Iso Roobertinkatu",
        "lat": 60.16278,
        "lon": 24.93903,
        "zoneId": "A",
        "vehicleType": 0,
        "vehicleMode": "TRAM"
      },
      {
        "gtfsId": "HSL:9640202",
        "name": "Metsämaa",
        "lat": 60.446018,
        "lon": 24.973734,
        "zoneId": "D",
        "vehicleType": 3,
        "vehicleMode": "BUS"
      },
      {
        "gtfsId": "HSL:1050413",
        "name": "Iso Roobertinkatu",
        "lat": 60.16288,
        "lon": 24.93909,
        "zoneId": "A",
        "vehicleType": 0,
        "vehicleMode": "TRAM"
      },
      {
        "gtfsId": "HSL:2434302",
        "name": "Pisanmäki",
        "lat": 60.17161,
        "lon": 24.68123,
        "zoneId": "C",
        "vehicleType": 3,
        "vehicleMode": "BUS"
      },
      {
        "gtfsId": "HSL:2434301",
        "name": "Pisanmäki",
        "lat": 60.17155,
        "lon": 24.68053,
        "zoneId": "C",
        "vehicleType": 3,
        "vehicleMode": "BUS"
      },
      {
        "gtfsId": "HSL:1351103",
        "name": "Pitkämäentie",
        "lat": 60.24882,
        "lon": 24.92861,
        "zoneId": "B",
        "vehicleType": 3,
        "vehicleMode": "BUS"
      },
      {
        "gtfsId": "HSL:1351104",
        "name": "Pitkämäentie",
        "lat": 60.24872,
        "lon": 24.92689,
        "zoneId": "B",
        "vehicleType": 3,
        "vehicleMode": "BUS"
      },
      {
        "gtfsId": "HSL:1351101",
        "name": "Paloheinäntie",
        "lat": 60.24797,
        "lon": 24.92389,
        "zoneId": "B",
        "vehicleType": 3,
        "vehicleMode": "BUS"
      },
      {
        "gtfsId": "HSL:1351102",
        "name": "Paloheinäntie",
        "lat": 60.24687,
        "lon": 24.9239,
        "zoneId": "B",
        "vehicleType": 3,
        "vehicleMode": "BUS"
      },
      {
        "gtfsId": "HSL:1050408",
        "name": "Viiskulma",
        "lat": 60.161274,
        "lon": 24.941349,
        "zoneId": "A",
        "vehicleType": 0,
        "vehicleMode": "TRAM"
      },
      {
        "gtfsId": "HSL:2614226",
        "name": "Kuurinmäki",
        "lat": 60.19976,
        "lon": 24.70503,
        "zoneId": "B",
        "vehicleType": 3,
        "vehicleMode": "BUS"
      },
      {
        "gtfsId": "HSL:2614227",
        "name": "Kuurinmäki",
        "lat": 60.19996,
        "lon": 24.70541,
        "zoneId": "B",
        "vehicleType": 3,
        "vehicleMode": "BUS"
      },
      {
        "gtfsId": "HSL:1050417",
        "name": "Telakkakatu",
        "lat": 60.158449,
        "lon": 24.934163,
        "zoneId": "A",
        "vehicleType": 0,
        "vehicleMode": "TRAM"
      },
      {
        "gtfsId": "HSL:1020602",
        "name": "Rautatientori",
        "lat": 60.170388,
        "lon": 24.939845,
        "zoneId": "A",
        "vehicleType": 1,
        "vehicleMode": "SUBWAY"
      },
      {
        "gtfsId": "HSL:1020601",
        "name": "Rautatientori",
        "lat": 60.170379,
        "lon": 24.939846,
        "zoneId": "A",
        "vehicleType": 1,
        "vehicleMode": "SUBWAY"
      },
      {
        "gtfsId": "HSL:1020604",
        "name": "Helsingin yliopisto",
        "lat": 60.172026,
        "lon": 24.94785,
        "zoneId": "A",
        "vehicleType": 1,
        "vehicleMode": "SUBWAY"
      },
      {
        "gtfsId": "HSL:1020603",
        "name": "Helsingin yliopisto",
        "lat": 60.172009,
        "lon": 24.947915,
        "zoneId": "A",
        "vehicleType": 1,
        "vehicleMode": "SUBWAY"
      },
      {
        "gtfsId": "HSL:2614286",
        "name": "Bembölensilta",
        "lat": 60.22219,
        "lon": 24.66789,
        "zoneId": "C",
        "vehicleType": 3,
        "vehicleMode": "BUS"
      },
      {
        "gtfsId": "HSL:4750299",
        "name": "Teuvontie",
        "lat": 60.32767,
        "lon": 25.10175,
        "zoneId": "C",
        "vehicleType": 3,
        "vehicleMode": "BUS"
      },
      {
        "gtfsId": "HSL:1302217",
        "name": "Kuusiniementie",
        "lat": 60.18716,
        "lon": 24.86985,
        "zoneId": "A",
        "vehicleType": 3,
        "vehicleMode": "BUS"
      },
      {
        "gtfsId": "HSL:1302218",
        "name": "Kuusisaarenkuja",
        "lat": 60.184553,
        "lon": 24.857309,
        "zoneId": "A",
        "vehicleType": 3,
        "vehicleMode": "BUS"
      },
      {
        "gtfsId": "HSL:1302219",
        "name": "Kuusisaarenkuja",
        "lat": 60.18488,
        "lon": 24.85935,
        "zoneId": "A",
        "vehicleType": 3,
        "vehicleMode": "BUS"
      },
      {
        "gtfsId": "HSL:2614256",
        "name": "Korukuja",
        "lat": 60.19862,
        "lon": 24.70922,
        "zoneId": "B",
        "vehicleType": 3,
        "vehicleMode": "BUS"
      },
      {
        "gtfsId": "HSL:2614257",
        "name": "Hopeatie",
        "lat": 60.19802,
        "lon": 24.71458,
        "zoneId": "B",
        "vehicleType": 3,
        "vehicleMode": "BUS"
      },
      {
        "gtfsId": "HSL:2614258",
        "name": "Hopeatie",
        "lat": 60.198,
        "lon": 24.71445,
        "zoneId": "B",
        "vehicleType": 3,
        "vehicleMode": "BUS"
      },
      {
        "gtfsId": "HSL:1302216",
        "name": "Kuusiniementie",
        "lat": 60.18696,
        "lon": 24.8681,
        "zoneId": "A",
        "vehicleType": 3,
        "vehicleMode": "BUS"
      },
      {
        "gtfsId": "HSL:2614259",
        "name": "Korukuja",
        "lat": 60.19899,
        "lon": 24.70857,
        "zoneId": "B",
        "vehicleType": 3,
        "vehicleMode": "BUS"
      },
      {
        "gtfsId": "HSL:2614260",
        "name": "Kuurintorppa",
        "lat": 60.19729,
        "lon": 24.71871,
        "zoneId": "B",
        "vehicleType": 3,
        "vehicleMode": "BUS"
      },
      {
        "gtfsId": "HSL:2632240",
        "name": "Jauhotullintie",
        "lat": 60.23172,
        "lon": 24.69809,
        "zoneId": "C",
        "vehicleType": 3,
        "vehicleMode": "BUS"
      },
      {
        "gtfsId": "HSL:2632243",
        "name": "Träskändan kartano",
        "lat": 60.23605,
        "lon": 24.7054,
        "zoneId": "C",
        "vehicleType": 3,
        "vehicleMode": "BUS"
      },
      {
        "gtfsId": "HSL:2632242",
        "name": "Träskändan kartano",
        "lat": 60.23498,
        "lon": 24.70481,
        "zoneId": "C",
        "vehicleType": 3,
        "vehicleMode": "BUS"
      },
      {
        "gtfsId": "HSL:2632241",
        "name": "Pihlajarinne",
        "lat": 60.23238,
        "lon": 24.69878,
        "zoneId": "C",
        "vehicleType": 3,
        "vehicleMode": "BUS"
      },
      {
        "gtfsId": "HSL:2632248",
        "name": "Ryytimaa",
        "lat": 60.24082,
        "lon": 24.71155,
        "zoneId": "C",
        "vehicleType": 3,
        "vehicleMode": "BUS"
      },
      {
        "gtfsId": "HSL:2632247",
        "name": "Träskändanristi",
        "lat": 60.2389,
        "lon": 24.70829,
        "zoneId": "C",
        "vehicleType": 3,
        "vehicleMode": "BUS"
      },
      {
        "gtfsId": "HSL:2632246",
        "name": "Träskändanristi",
        "lat": 60.23841,
        "lon": 24.70811,
        "zoneId": "C",
        "vehicleType": 3,
        "vehicleMode": "BUS"
      },
      {
        "gtfsId": "HSL:2632245",
        "name": "Kylänportti",
        "lat": 60.24055,
        "lon": 24.70263,
        "zoneId": "C",
        "vehicleType": 3,
        "vehicleMode": "BUS"
      },
      {
        "gtfsId": "HSL:6060201",
        "name": "Matta",
        "lat": 60.092123,
        "lon": 24.501967,
        "zoneId": "D",
        "vehicleType": 3,
        "vehicleMode": "BUS"
      },
      {
        "gtfsId": "HSL:2632249",
        "name": "Ryytimaa",
        "lat": 60.24109,
        "lon": 24.71284,
        "zoneId": "C",
        "vehicleType": 3,
        "vehicleMode": "BUS"
      },
      {
        "gtfsId": "HSL:2632233",
        "name": "Tollinportti",
        "lat": 60.22548,
        "lon": 24.68117,
        "zoneId": "C",
        "vehicleType": 3,
        "vehicleMode": "BUS"
      },
      {
        "gtfsId": "HSL:2632232",
        "name": "Bemböle skola",
        "lat": 60.22308,
        "lon": 24.6774,
        "zoneId": "C",
        "vehicleType": 3,
        "vehicleMode": "BUS"
      },
      {
        "gtfsId": "HSL:2632237",
        "name": "Pellas",
        "lat": 60.22856,
        "lon": 24.69157,
        "zoneId": "C",
        "vehicleType": 3,
        "vehicleMode": "BUS"
      },
      {
        "gtfsId": "HSL:2632236",
        "name": "Itäpelto",
        "lat": 60.22601,
        "lon": 24.68628,
        "zoneId": "C",
        "vehicleType": 3,
        "vehicleMode": "BUS"
      },
      {
        "gtfsId": "HSL:2632235",
        "name": "Itäpelto",
        "lat": 60.22592,
        "lon": 24.68556,
        "zoneId": "C",
        "vehicleType": 3,
        "vehicleMode": "BUS"
      },
      {
        "gtfsId": "HSL:2632234",
        "name": "Tollinportti",
        "lat": 60.22558,
        "lon": 24.68211,
        "zoneId": "C",
        "vehicleType": 3,
        "vehicleMode": "BUS"
      },
      {
        "gtfsId": "HSL:2632239",
        "name": "Jauhotullintie",
        "lat": 60.23077,
        "lon": 24.69602,
        "zoneId": "C",
        "vehicleType": 3,
        "vehicleMode": "BUS"
      },
      {
        "gtfsId": "HSL:2632238",
        "name": "Pellas",
        "lat": 60.229,
        "lon": 24.69282,
        "zoneId": "C",
        "vehicleType": 3,
        "vehicleMode": "BUS"
      },
      {
        "gtfsId": "HSL:2644248",
        "name": "Punjo",
        "lat": 60.26953,
        "lon": 24.59526,
        "zoneId": "C",
        "vehicleType": 3,
        "vehicleMode": "BUS"
      },
      {
        "gtfsId": "HSL:2644249",
        "name": "Solvik",
        "lat": 60.27654,
        "lon": 24.5897,
        "zoneId": "C",
        "vehicleType": 3,
        "vehicleMode": "BUS"
      },
      {
        "gtfsId": "HSL:2644247",
        "name": "Punjo",
        "lat": 60.26876,
        "lon": 24.59526,
        "zoneId": "C",
        "vehicleType": 3,
        "vehicleMode": "BUS"
      },
      {
        "gtfsId": "HSL:2632262",
        "name": "Puotismäentie",
        "lat": 60.24011,
        "lon": 24.6906,
        "zoneId": "C",
        "vehicleType": 3,
        "vehicleMode": "BUS"
      },
      {
        "gtfsId": "HSL:2632261",
        "name": "Karamzininpuisto",
        "lat": 60.24461,
        "lon": 24.71319,
        "zoneId": "C",
        "vehicleType": 3,
        "vehicleMode": "BUS"
      },
      {
        "gtfsId": "HSL:2632260",
        "name": "Auroranportti",
        "lat": 60.23844,
        "lon": 24.70498,
        "zoneId": "C",
        "vehicleType": 3,
        "vehicleMode": "BUS"
      },
      {
        "gtfsId": "HSL:1250551",
        "name": "Käpylä",
        "lat": 60.220269,
        "lon": 24.947051,
        "zoneId": "A",
        "vehicleType": 109,
        "vehicleMode": "RAIL"
      },
      {
        "gtfsId": "HSL:2632251",
        "name": "Kulloonmäki",
        "lat": 60.24653,
        "lon": 24.71277,
        "zoneId": "C",
        "vehicleType": 3,
        "vehicleMode": "BUS"
      },
      {
        "gtfsId": "HSL:6060202",
        "name": "Bondarbyntie",
        "lat": 60.097985,
        "lon": 24.498815,
        "zoneId": "D",
        "vehicleType": 3,
        "vehicleMode": "BUS"
      },
      {
        "gtfsId": "HSL:2632250",
        "name": "Karamzinin koulu",
        "lat": 60.24335,
        "lon": 24.71488,
        "zoneId": "C",
        "vehicleType": 3,
        "vehicleMode": "BUS"
      },
      {
        "gtfsId": "HSL:6060203",
        "name": "Bondarbyntie",
        "lat": 60.098087,
        "lon": 24.497983,
        "zoneId": "D",
        "vehicleType": 3,
        "vehicleMode": "BUS"
      },
      {
        "gtfsId": "HSL:6060204",
        "name": "Gunnarsby",
        "lat": 60.102107,
        "lon": 24.486558,
        "zoneId": "D",
        "vehicleType": 3,
        "vehicleMode": "BUS"
      },
      {
        "gtfsId": "HSL:6060205",
        "name": "Gunnarsby",
        "lat": 60.102485,
        "lon": 24.486728,
        "zoneId": "D",
        "vehicleType": 3,
        "vehicleMode": "BUS"
      },
      {
        "gtfsId": "HSL:6060206",
        "name": "Peuramaantie",
        "lat": 60.105797,
        "lon": 24.4791,
        "zoneId": "D",
        "vehicleType": 3,
        "vehicleMode": "BUS"
      },
      {
        "gtfsId": "HSL:6060207",
        "name": "Peuramaantie",
        "lat": 60.106565,
        "lon": 24.479938,
        "zoneId": "D",
        "vehicleType": 3,
        "vehicleMode": "BUS"
      },
      {
        "gtfsId": "HSL:2632254",
        "name": "Emännäntie",
        "lat": 60.2496,
        "lon": 24.71569,
        "zoneId": "C",
        "vehicleType": 3,
        "vehicleMode": "BUS"
      },
      {
        "gtfsId": "HSL:6060208",
        "name": "Korkkulla",
        "lat": 60.11543,
        "lon": 24.4815,
        "zoneId": "D",
        "vehicleType": 3,
        "vehicleMode": "BUS"
      },
      {
        "gtfsId": "HSL:2632253",
        "name": "Emännäntie",
        "lat": 60.24994,
        "lon": 24.7166,
        "zoneId": "C",
        "vehicleType": 3,
        "vehicleMode": "BUS"
      },
      {
        "gtfsId": "HSL:6060209",
        "name": "Korkkulla",
        "lat": 60.11624,
        "lon": 24.4822,
        "zoneId": "D",
        "vehicleType": 3,
        "vehicleMode": "BUS"
      },
      {
        "gtfsId": "HSL:2632252",
        "name": "Kulloonmäki",
        "lat": 60.24641,
        "lon": 24.71263,
        "zoneId": "C",
        "vehicleType": 3,
        "vehicleMode": "BUS"
      },
      {
        "gtfsId": "HSL:2632259",
        "name": "Auroranportti",
        "lat": 60.23785,
        "lon": 24.70422,
        "zoneId": "C",
        "vehicleType": 3,
        "vehicleMode": "BUS"
      },
      {
        "gtfsId": "HSL:2632258",
        "name": "Träskändanristi",
        "lat": 60.23912,
        "lon": 24.70695,
        "zoneId": "C",
        "vehicleType": 3,
        "vehicleMode": "BUS"
      },
      {
        "gtfsId": "HSL:2632257",
        "name": "Kulloonsilta",
        "lat": 60.25106,
        "lon": 24.71774,
        "zoneId": "C",
        "vehicleType": 3,
        "vehicleMode": "BUS"
      },
      {
        "gtfsId": "HSL:6060212",
        "name": "Tolsa",
        "lat": 60.1185,
        "lon": 24.47475,
        "zoneId": "D",
        "vehicleType": 3,
        "vehicleMode": "BUS"
      },
      {
        "gtfsId": "HSL:2644230",
        "name": "Haltia",
        "lat": 60.293557,
        "lon": 24.558697,
        "zoneId": "C",
        "vehicleType": 3,
        "vehicleMode": "BUS"
      },
      {
        "gtfsId": "HSL:2644231",
        "name": "Haltia",
        "lat": 60.294402,
        "lon": 24.556703,
        "zoneId": "C",
        "vehicleType": 3,
        "vehicleMode": "BUS"
      },
      {
        "gtfsId": "HSL:2644232",
        "name": "Nuuksionpää",
        "lat": 60.31662,
        "lon": 24.53793,
        "zoneId": "C",
        "vehicleType": 3,
        "vehicleMode": "BUS"
      },
      {
        "gtfsId": "HSL:1351129",
        "name": "Paloheinän jäähalli",
        "lat": 60.253775,
        "lon": 24.918462,
        "zoneId": "B",
        "vehicleType": 3,
        "vehicleMode": "BUS"
      },
      {
        "gtfsId": "HSL:1351127",
        "name": "Kuusmiehentie",
        "lat": 60.25581,
        "lon": 24.93762,
        "zoneId": "B",
        "vehicleType": 3,
        "vehicleMode": "BUS"
      },
      {
        "gtfsId": "HSL:1351122",
        "name": "Rakovalkeantie",
        "lat": 60.25289,
        "lon": 24.94031,
        "zoneId": "B",
        "vehicleType": 3,
        "vehicleMode": "BUS"
      },
      {
        "gtfsId": "HSL:1351125",
        "name": "Kuusmiehentie",
        "lat": 60.255681,
        "lon": 24.937717,
        "zoneId": "B",
        "vehicleType": 3,
        "vehicleMode": "BUS"
      },
      {
        "gtfsId": "HSL:1351123",
        "name": "Tervastie",
        "lat": 60.25147,
        "lon": 24.94151,
        "zoneId": "B",
        "vehicleType": 3,
        "vehicleMode": "BUS"
      },
      {
        "gtfsId": "HSL:1351124",
        "name": "Rakovalkeantie",
        "lat": 60.2527,
        "lon": 24.94095,
        "zoneId": "B",
        "vehicleType": 3,
        "vehicleMode": "BUS"
      },
      {
        "gtfsId": "HSL:2632202",
        "name": "Järvenperänsilta",
        "lat": 60.24102,
        "lon": 24.70065,
        "zoneId": "C",
        "vehicleType": 3,
        "vehicleMode": "BUS"
      },
      {
        "gtfsId": "HSL:4750201",
        "name": "Onervantie",
        "lat": 60.3279,
        "lon": 25.09475,
        "zoneId": "C",
        "vehicleType": 3,
        "vehicleMode": "BUS"
      },
      {
        "gtfsId": "HSL:4750202",
        "name": "Onervantie",
        "lat": 60.32803,
        "lon": 25.09629,
        "zoneId": "C",
        "vehicleType": 3,
        "vehicleMode": "BUS"
      },
      {
        "gtfsId": "HSL:4750203",
        "name": "Teuvontie",
        "lat": 60.32736,
        "lon": 25.10289,
        "zoneId": "C",
        "vehicleType": 3,
        "vehicleMode": "BUS"
      },
      {
        "gtfsId": "HSL:4750204",
        "name": "Tuulikintie",
        "lat": 60.32423,
        "lon": 25.10955,
        "zoneId": "C",
        "vehicleType": 3,
        "vehicleMode": "BUS"
      },
      {
        "gtfsId": "HSL:4750205",
        "name": "Tuulikintie",
        "lat": 60.3247,
        "lon": 25.10919,
        "zoneId": "C",
        "vehicleType": 3,
        "vehicleMode": "BUS"
      },
      {
        "gtfsId": "HSL:4750206",
        "name": "Pentintie",
        "lat": 60.32138,
        "lon": 25.11206,
        "zoneId": "C",
        "vehicleType": 3,
        "vehicleMode": "BUS"
      },
      {
        "gtfsId": "HSL:4750207",
        "name": "Pentintie",
        "lat": 60.32126,
        "lon": 25.11231,
        "zoneId": "C",
        "vehicleType": 3,
        "vehicleMode": "BUS"
      },
      {
        "gtfsId": "HSL:4750208",
        "name": "Kaukonkuja",
        "lat": 60.31848,
        "lon": 25.09669,
        "zoneId": "C",
        "vehicleType": 3,
        "vehicleMode": "BUS"
      },
      {
        "gtfsId": "HSL:4750209",
        "name": "Nyyrikintie",
        "lat": 60.31961,
        "lon": 25.09455,
        "zoneId": "C",
        "vehicleType": 3,
        "vehicleMode": "BUS"
      },
      {
        "gtfsId": "HSL:1351116",
        "name": "Kivimäki",
        "lat": 60.25305,
        "lon": 24.9188,
        "zoneId": "B",
        "vehicleType": 3,
        "vehicleMode": "BUS"
      },
      {
        "gtfsId": "HSL:1351117",
        "name": "Kivimäki",
        "lat": 60.25285,
        "lon": 24.91874,
        "zoneId": "B",
        "vehicleType": 3,
        "vehicleMode": "BUS"
      },
      {
        "gtfsId": "HSL:1351110",
        "name": "Raiviontie",
        "lat": 60.249188,
        "lon": 24.942028,
        "zoneId": "B",
        "vehicleType": 3,
        "vehicleMode": "BUS"
      },
      {
        "gtfsId": "HSL:1351114",
        "name": "Repovuori",
        "lat": 60.25068,
        "lon": 24.9198,
        "zoneId": "B",
        "vehicleType": 3,
        "vehicleMode": "BUS"
      },
      {
        "gtfsId": "HSL:1351115",
        "name": "Repovuori",
        "lat": 60.24994,
        "lon": 24.91996,
        "zoneId": "B",
        "vehicleType": 3,
        "vehicleMode": "BUS"
      },
      {
        "gtfsId": "HSL:1351112",
        "name": "Saramäentie",
        "lat": 60.24888,
        "lon": 24.94679,
        "zoneId": "B",
        "vehicleType": 3,
        "vehicleMode": "BUS"
      },
      {
        "gtfsId": "HSL:1351113",
        "name": "Paloheinäntie",
        "lat": 60.2477,
        "lon": 24.92264,
        "zoneId": "B",
        "vehicleType": 3,
        "vehicleMode": "BUS"
      },
      {
        "gtfsId": "HSL:4750210",
        "name": "Nyyrikintie",
        "lat": 60.3206,
        "lon": 25.09284,
        "zoneId": "C",
        "vehicleType": 3,
        "vehicleMode": "BUS"
      },
      {
        "gtfsId": "HSL:4750211",
        "name": "Tapiontie",
        "lat": 60.32087,
        "lon": 25.08958,
        "zoneId": "C",
        "vehicleType": 3,
        "vehicleMode": "BUS"
      },
      {
        "gtfsId": "HSL:4750212",
        "name": "Tapiontie",
        "lat": 60.32134,
        "lon": 25.0874,
        "zoneId": "C",
        "vehicleType": 3,
        "vehicleMode": "BUS"
      },
      {
        "gtfsId": "HSL:4750213",
        "name": "Kaukonkuja",
        "lat": 60.31788,
        "lon": 25.09712,
        "zoneId": "C",
        "vehicleType": 3,
        "vehicleMode": "BUS"
      },
      {
        "gtfsId": "HSL:4750214",
        "name": "Päiväkummuntie",
        "lat": 60.31573,
        "lon": 25.10179,
        "zoneId": "C",
        "vehicleType": 3,
        "vehicleMode": "BUS"
      },
      {
        "gtfsId": "HSL:4750215",
        "name": "Yrjänänkuja",
        "lat": 60.31645,
        "lon": 25.10366,
        "zoneId": "C",
        "vehicleType": 3,
        "vehicleMode": "BUS"
      },
      {
        "gtfsId": "HSL:4750216",
        "name": "Yrjänänkuja",
        "lat": 60.31682,
        "lon": 25.10541,
        "zoneId": "C",
        "vehicleType": 3,
        "vehicleMode": "BUS"
      },
      {
        "gtfsId": "HSL:4750217",
        "name": "Päiväkummuntie",
        "lat": 60.31596,
        "lon": 25.10011,
        "zoneId": "C",
        "vehicleType": 3,
        "vehicleMode": "BUS"
      },
      {
        "gtfsId": "HSL:1363101",
        "name": "Viikki",
        "lat": 60.229313,
        "lon": 25.010037,
        "zoneId": "B",
        "vehicleType": 3,
        "vehicleMode": "BUS"
      },
      {
        "gtfsId": "HSL:4750219",
        "name": "Ylermintie",
        "lat": 60.31804,
        "lon": 25.10727,
        "zoneId": "C",
        "vehicleType": 3,
        "vehicleMode": "BUS"
      },
      {
        "gtfsId": "HSL:2644204",
        "name": "Högbacka",
        "lat": 60.320215,
        "lon": 24.520398,
        "zoneId": "C",
        "vehicleType": 3,
        "vehicleMode": "BUS"
      },
      {
        "gtfsId": "HSL:2644205",
        "name": "Kattilantie 39",
        "lat": 60.323028,
        "lon": 24.510185,
        "zoneId": "C",
        "vehicleType": 3,
        "vehicleMode": "BUS"
      },
      {
        "gtfsId": "HSL:2644203",
        "name": "Högbacka",
        "lat": 60.320237,
        "lon": 24.521678,
        "zoneId": "C",
        "vehicleType": 3,
        "vehicleMode": "BUS"
      },
      {
        "gtfsId": "HSL:2644206",
        "name": "Kattilantie 39",
        "lat": 60.322744,
        "lon": 24.510589,
        "zoneId": "C",
        "vehicleType": 3,
        "vehicleMode": "BUS"
      },
      {
        "gtfsId": "HSL:4750220",
        "name": "Ylermintie",
        "lat": 60.31855,
        "lon": 25.10905,
        "zoneId": "C",
        "vehicleType": 3,
        "vehicleMode": "BUS"
      },
      {
        "gtfsId": "HSL:4750221",
        "name": "Kyllikintie",
        "lat": 60.32045,
        "lon": 25.11164,
        "zoneId": "C",
        "vehicleType": 3,
        "vehicleMode": "BUS"
      },
      {
        "gtfsId": "HSL:4750222",
        "name": "Päiväkummuntie",
        "lat": 60.31618,
        "lon": 25.09939,
        "zoneId": "C",
        "vehicleType": 3,
        "vehicleMode": "BUS"
      },
      {
        "gtfsId": "HSL:2644201",
        "name": "Kattila",
        "lat": 60.32752,
        "lon": 24.49536,
        "zoneId": "C",
        "vehicleType": 3,
        "vehicleMode": "BUS"
      },
      {
        "gtfsId": "HSL:1351132",
        "name": "Sysiniitty",
        "lat": 60.255889,
        "lon": 24.930862,
        "zoneId": "B",
        "vehicleType": 3,
        "vehicleMode": "BUS"
      },
      {
        "gtfsId": "HSL:2632211",
        "name": "Järvenperänsolmu",
        "lat": 60.2401,
        "lon": 24.69561,
        "zoneId": "C",
        "vehicleType": 3,
        "vehicleMode": "BUS"
      },
      {
        "gtfsId": "HSL:2632210",
        "name": "Järvenperänsolmu",
        "lat": 60.241825,
        "lon": 24.699687,
        "zoneId": "C",
        "vehicleType": 3,
        "vehicleMode": "BUS"
      },
      {
        "gtfsId": "HSL:4310211",
        "name": "Sompiontie",
        "lat": 60.373678,
        "lon": 24.80553,
        "zoneId": "C",
        "vehicleType": 3,
        "vehicleMode": "BUS"
      },
      {
        "gtfsId": "HSL:4310212",
        "name": "Sompiontie",
        "lat": 60.374543,
        "lon": 24.805901,
        "zoneId": "C",
        "vehicleType": 3,
        "vehicleMode": "BUS"
      },
      {
        "gtfsId": "HSL:9506002",
        "name": "Kallio-Kuninkala",
        "lat": 60.445708,
        "lon": 25.077829,
        "zoneId": "D",
        "vehicleType": 3,
        "vehicleMode": "BUS"
      },
      {
        "gtfsId": "HSL:4310213",
        "name": "Klaukkalantie",
        "lat": 60.354738,
        "lon": 24.805117,
        "zoneId": "C",
        "vehicleType": 3,
        "vehicleMode": "BUS"
      },
      {
        "gtfsId": "HSL:4310214",
        "name": "Klaukkalantie",
        "lat": 60.35501,
        "lon": 24.80292,
        "zoneId": "C",
        "vehicleType": 3,
        "vehicleMode": "BUS"
      },
      {
        "gtfsId": "HSL:9050209",
        "name": "Levonmäentie",
        "lat": 60.38965,
        "lon": 25.14576,
        "zoneId": "D",
        "vehicleType": 3,
        "vehicleMode": "BUS"
      },
      {
        "gtfsId": "HSL:9050208",
        "name": "Levonmäentie",
        "lat": 60.38884,
        "lon": 25.14521,
        "zoneId": "D",
        "vehicleType": 3,
        "vehicleMode": "BUS"
      },
      {
        "gtfsId": "HSL:4310210",
        "name": "Mäkimatintie",
        "lat": 60.360961,
        "lon": 24.807177,
        "zoneId": "C",
        "vehicleType": 3,
        "vehicleMode": "BUS"
      },
      {
        "gtfsId": "HSL:9050205",
        "name": "Keinukalliontie",
        "lat": 60.38618,
        "lon": 25.14439,
        "zoneId": "D",
        "vehicleType": 3,
        "vehicleMode": "BUS"
      },
      {
        "gtfsId": "HSL:9050204",
        "name": "Metsärinne",
        "lat": 60.40798,
        "lon": 25.14112,
        "zoneId": "D",
        "vehicleType": 3,
        "vehicleMode": "BUS"
      },
      {
        "gtfsId": "HSL:9050206",
        "name": "Keinukalliontie",
        "lat": 60.38642,
        "lon": 25.14572,
        "zoneId": "D",
        "vehicleType": 3,
        "vehicleMode": "BUS"
      },
      {
        "gtfsId": "HSL:9050201",
        "name": "Annantie",
        "lat": 60.406755,
        "lon": 25.145383,
        "zoneId": "D",
        "vehicleType": 3,
        "vehicleMode": "BUS"
      },
      {
        "gtfsId": "HSL:4310215",
        "name": "Mäntylä",
        "lat": 60.35648,
        "lon": 24.79697,
        "zoneId": "C",
        "vehicleType": 3,
        "vehicleMode": "BUS"
      },
      {
        "gtfsId": "HSL:4310216",
        "name": "Mäntylä",
        "lat": 60.357291,
        "lon": 24.795849,
        "zoneId": "C",
        "vehicleType": 3,
        "vehicleMode": "BUS"
      },
      {
        "gtfsId": "HSL:4310217",
        "name": "Klaukkalantie",
        "lat": 60.35337,
        "lon": 24.8067,
        "zoneId": "C",
        "vehicleType": 3,
        "vehicleMode": "BUS"
      },
      {
        "gtfsId": "HSL:9050203",
        "name": "Metsärinne",
        "lat": 60.40851,
        "lon": 25.14048,
        "zoneId": "D",
        "vehicleType": 3,
        "vehicleMode": "BUS"
      },
      {
        "gtfsId": "HSL:4310218",
        "name": "Klaukkalantie",
        "lat": 60.356043,
        "lon": 24.807018,
        "zoneId": "C",
        "vehicleType": 3,
        "vehicleMode": "BUS"
      },
      {
        "gtfsId": "HSL:9050210",
        "name": "Auratie",
        "lat": 60.39164,
        "lon": 25.14634,
        "zoneId": "D",
        "vehicleType": 3,
        "vehicleMode": "BUS"
      },
      {
        "gtfsId": "HSL:2415266",
        "name": "Verkkosaarenkuja",
        "lat": 60.12457,
        "lon": 24.67214,
        "zoneId": "C",
        "vehicleType": 3,
        "vehicleMode": "BUS"
      },
      {
        "gtfsId": "HSL:1230109",
        "name": "Kumpulan kampus",
        "lat": 60.20312,
        "lon": 24.9673,
        "zoneId": "A",
        "vehicleType": 3,
        "vehicleMode": "BUS"
      },
      {
        "gtfsId": "HSL:2415264",
        "name": "Ampujanmäki",
        "lat": 60.12456,
        "lon": 24.67677,
        "zoneId": "C",
        "vehicleType": 3,
        "vehicleMode": "BUS"
      },
      {
        "gtfsId": "HSL:1171442",
        "name": "Auroran sairaala",
        "lat": 60.19152,
        "lon": 24.92539,
        "zoneId": "A",
        "vehicleType": 0,
        "vehicleMode": "TRAM"
      },
      {
        "gtfsId": "HSL:1171444",
        "name": "Eläintarha",
        "lat": 60.1926,
        "lon": 24.93078,
        "zoneId": "A",
        "vehicleType": 0,
        "vehicleMode": "TRAM"
      },
      {
        "gtfsId": "HSL:2415263",
        "name": "Ampujanmäki",
        "lat": 60.12456,
        "lon": 24.67649,
        "zoneId": "C",
        "vehicleType": 3,
        "vehicleMode": "BUS"
      },
      {
        "gtfsId": "HSL:1171445",
        "name": "Eläintarha",
        "lat": 60.19255,
        "lon": 24.93023,
        "zoneId": "A",
        "vehicleType": 0,
        "vehicleMode": "TRAM"
      },
      {
        "gtfsId": "HSL:1230101",
        "name": "Kaironkatu",
        "lat": 60.210234,
        "lon": 24.976613,
        "zoneId": "A",
        "vehicleType": 3,
        "vehicleMode": "BUS"
      },
      {
        "gtfsId": "HSL:1230102",
        "name": "Kaironkatu",
        "lat": 60.21121,
        "lon": 24.97757,
        "zoneId": "A",
        "vehicleType": 3,
        "vehicleMode": "BUS"
      },
      {
        "gtfsId": "HSL:1230103",
        "name": "Arabia",
        "lat": 60.20808,
        "lon": 24.97474,
        "zoneId": "A",
        "vehicleType": 3,
        "vehicleMode": "BUS"
      },
      {
        "gtfsId": "HSL:1230104",
        "name": "Arabia",
        "lat": 60.20827,
        "lon": 24.97504,
        "zoneId": "A",
        "vehicleType": 3,
        "vehicleMode": "BUS"
      },
      {
        "gtfsId": "HSL:4310201",
        "name": "Luhtaanmäenkuja",
        "lat": 60.34533,
        "lon": 24.80527,
        "zoneId": "C",
        "vehicleType": 3,
        "vehicleMode": "BUS"
      },
      {
        "gtfsId": "HSL:4310202",
        "name": "Luhtaanmäenkuja",
        "lat": 60.34493,
        "lon": 24.8056,
        "zoneId": "C",
        "vehicleType": 3,
        "vehicleMode": "BUS"
      },
      {
        "gtfsId": "HSL:4310203",
        "name": "Kongontie",
        "lat": 60.35002,
        "lon": 24.79507,
        "zoneId": "C",
        "vehicleType": 3,
        "vehicleMode": "BUS"
      },
      {
        "gtfsId": "HSL:4310208",
        "name": "Peräjäntie",
        "lat": 60.34986,
        "lon": 24.80924,
        "zoneId": "C",
        "vehicleType": 3,
        "vehicleMode": "BUS"
      },
      {
        "gtfsId": "HSL:9050216",
        "name": "Terästie",
        "lat": 60.40003,
        "lon": 25.14512,
        "zoneId": "D",
        "vehicleType": 3,
        "vehicleMode": "BUS"
      },
      {
        "gtfsId": "HSL:4310209",
        "name": "Mäkimatintie",
        "lat": 60.360498,
        "lon": 24.807107,
        "zoneId": "C",
        "vehicleType": 3,
        "vehicleMode": "BUS"
      },
      {
        "gtfsId": "HSL:9050215",
        "name": "Sysitie",
        "lat": 60.39715,
        "lon": 25.14532,
        "zoneId": "D",
        "vehicleType": 3,
        "vehicleMode": "BUS"
      },
      {
        "gtfsId": "HSL:9050217",
        "name": "Terästie",
        "lat": 60.4001,
        "lon": 25.1452,
        "zoneId": "D",
        "vehicleType": 3,
        "vehicleMode": "BUS"
      },
      {
        "gtfsId": "HSL:9050212",
        "name": "Sorsakorventie",
        "lat": 60.39415,
        "lon": 25.14529,
        "zoneId": "D",
        "vehicleType": 3,
        "vehicleMode": "BUS"
      },
      {
        "gtfsId": "HSL:4310204",
        "name": "Kongontie",
        "lat": 60.34956,
        "lon": 24.79552,
        "zoneId": "C",
        "vehicleType": 3,
        "vehicleMode": "BUS"
      },
      {
        "gtfsId": "HSL:4310205",
        "name": "Kuhajoentie",
        "lat": 60.35574,
        "lon": 24.79479,
        "zoneId": "C",
        "vehicleType": 3,
        "vehicleMode": "BUS"
      },
      {
        "gtfsId": "HSL:9050211",
        "name": "Auratie",
        "lat": 60.39214,
        "lon": 25.14665,
        "zoneId": "D",
        "vehicleType": 3,
        "vehicleMode": "BUS"
      },
      {
        "gtfsId": "HSL:4310206",
        "name": "Kuhajoentie",
        "lat": 60.35625,
        "lon": 24.79544,
        "zoneId": "C",
        "vehicleType": 3,
        "vehicleMode": "BUS"
      },
      {
        "gtfsId": "HSL:9050214",
        "name": "Harkkotie",
        "lat": 60.39609,
        "lon": 25.14491,
        "zoneId": "D",
        "vehicleType": 3,
        "vehicleMode": "BUS"
      },
      {
        "gtfsId": "HSL:4310207",
        "name": "Peräjäntie",
        "lat": 60.34856,
        "lon": 24.80956,
        "zoneId": "C",
        "vehicleType": 3,
        "vehicleMode": "BUS"
      },
      {
        "gtfsId": "HSL:9050213",
        "name": "Sorsakorventie",
        "lat": 60.39432,
        "lon": 25.14548,
        "zoneId": "D",
        "vehicleType": 3,
        "vehicleMode": "BUS"
      },
      {
        "gtfsId": "HSL:2415279",
        "name": "Salmensuu",
        "lat": 60.12684,
        "lon": 24.66981,
        "zoneId": "C",
        "vehicleType": 3,
        "vehicleMode": "BUS"
      },
      {
        "gtfsId": "HSL:2415275",
        "name": "Kilvoituksentie",
        "lat": 60.12729,
        "lon": 24.67957,
        "zoneId": "C",
        "vehicleType": 3,
        "vehicleMode": "BUS"
      },
      {
        "gtfsId": "HSL:2415276",
        "name": "Kilvoituksentie",
        "lat": 60.12733,
        "lon": 24.67968,
        "zoneId": "C",
        "vehicleType": 3,
        "vehicleMode": "BUS"
      },
      {
        "gtfsId": "HSL:2415273",
        "name": "Soukansalmentie",
        "lat": 60.12895,
        "lon": 24.6673,
        "zoneId": "C",
        "vehicleType": 3,
        "vehicleMode": "BUS"
      },
      {
        "gtfsId": "HSL:2415274",
        "name": "Soukansalmentie",
        "lat": 60.12875,
        "lon": 24.66742,
        "zoneId": "C",
        "vehicleType": 3,
        "vehicleMode": "BUS"
      },
      {
        "gtfsId": "HSL:2415272",
        "name": "Munkkiranta",
        "lat": 60.12895,
        "lon": 24.68026,
        "zoneId": "C",
        "vehicleType": 3,
        "vehicleMode": "BUS"
      },
      {
        "gtfsId": "HSL:1020460",
        "name": "Kaisaniemenpuisto",
        "lat": 60.17331,
        "lon": 24.94921,
        "zoneId": "A",
        "vehicleType": 0,
        "vehicleMode": "TRAM"
      },
      {
        "gtfsId": "HSL:1020464",
        "name": "Ylioppilastalo",
        "lat": 60.16776,
        "lon": 24.94159,
        "zoneId": "A",
        "vehicleType": 0,
        "vehicleMode": "TRAM"
      },
      {
        "gtfsId": "HSL:1020463",
        "name": "Ylioppilastalo",
        "lat": 60.16823,
        "lon": 24.9411,
        "zoneId": "A",
        "vehicleType": 0,
        "vehicleMode": "TRAM"
      },
      {
        "gtfsId": "HSL:9050227",
        "name": "Päivölä",
        "lat": 60.40562,
        "lon": 25.13303,
        "zoneId": "D",
        "vehicleType": 3,
        "vehicleMode": "BUS"
      },
      {
        "gtfsId": "HSL:9050226",
        "name": "Etelä-Kaskela",
        "lat": 60.40598,
        "lon": 25.13959,
        "zoneId": "D",
        "vehicleType": 3,
        "vehicleMode": "BUS"
      },
      {
        "gtfsId": "HSL:9050229",
        "name": "Päivölä",
        "lat": 60.40502,
        "lon": 25.13488,
        "zoneId": "D",
        "vehicleType": 3,
        "vehicleMode": "BUS"
      },
      {
        "gtfsId": "HSL:9050222",
        "name": "Etelä-Kaskela",
        "lat": 60.40684,
        "lon": 25.14171,
        "zoneId": "D",
        "vehicleType": 3,
        "vehicleMode": "BUS"
      },
      {
        "gtfsId": "HSL:9050225",
        "name": "Ahjonsilta",
        "lat": 60.40554,
        "lon": 25.14059,
        "zoneId": "D",
        "vehicleType": 3,
        "vehicleMode": "BUS"
      },
      {
        "gtfsId": "HSL:9050224",
        "name": "Etelä-Kaskela",
        "lat": 60.40645,
        "lon": 25.14283,
        "zoneId": "D",
        "vehicleType": 3,
        "vehicleMode": "BUS"
      },
      {
        "gtfsId": "HSL:9050230",
        "name": "Vaihdekatu",
        "lat": 60.40239,
        "lon": 25.13575,
        "zoneId": "D",
        "vehicleType": 3,
        "vehicleMode": "BUS"
      },
      {
        "gtfsId": "HSL:2415246",
        "name": "Verkkosaarenkuja",
        "lat": 60.12443,
        "lon": 24.67228,
        "zoneId": "C",
        "vehicleType": 3,
        "vehicleMode": "BUS"
      },
      {
        "gtfsId": "HSL:9050232",
        "name": "Ahjon koulu",
        "lat": 60.40087,
        "lon": 25.13935,
        "zoneId": "D",
        "vehicleType": 3,
        "vehicleMode": "BUS"
      },
      {
        "gtfsId": "HSL:2415244",
        "name": "Soukankalliot",
        "lat": 60.1302,
        "lon": 24.68148,
        "zoneId": "C",
        "vehicleType": 3,
        "vehicleMode": "BUS"
      },
      {
        "gtfsId": "HSL:9050231",
        "name": "Vaihdekatu",
        "lat": 60.40229,
        "lon": 25.13579,
        "zoneId": "D",
        "vehicleType": 3,
        "vehicleMode": "BUS"
      },
      {
        "gtfsId": "HSL:2415242",
        "name": "Hanikka",
        "lat": 60.13338,
        "lon": 24.68143,
        "zoneId": "C",
        "vehicleType": 3,
        "vehicleMode": "BUS"
      },
      {
        "gtfsId": "HSL:2415243",
        "name": "Soukankalliot",
        "lat": 60.13011,
        "lon": 24.68134,
        "zoneId": "C",
        "vehicleType": 3,
        "vehicleMode": "BUS"
      },
      {
        "gtfsId": "HSL:2415241",
        "name": "Hanikka",
        "lat": 60.13248,
        "lon": 24.68105,
        "zoneId": "C",
        "vehicleType": 3,
        "vehicleMode": "BUS"
      },
      {
        "gtfsId": "HSL:1453287",
        "name": "Itäkeskus (M)",
        "lat": 60.20982,
        "lon": 25.07738,
        "zoneId": "B",
        "vehicleType": 3,
        "vehicleMode": "BUS"
      },
      {
        "gtfsId": "HSL:1020450",
        "name": "Senaatintori",
        "lat": 60.16901,
        "lon": 24.95046,
        "zoneId": "A",
        "vehicleType": 0,
        "vehicleMode": "TRAM"
      },
      {
        "gtfsId": "HSL:1020453",
        "name": "Rautatieasema",
        "lat": 60.17036,
        "lon": 24.9413,
        "zoneId": "A",
        "vehicleType": 0,
        "vehicleMode": "TRAM"
      },
      {
        "gtfsId": "HSL:1020455",
        "name": "Senaatintori",
        "lat": 60.16896,
        "lon": 24.94983,
        "zoneId": "A",
        "vehicleType": 0,
        "vehicleMode": "TRAM"
      },
      {
        "gtfsId": "HSL:1020454",
        "name": "Rautatieasema",
        "lat": 60.1704,
        "lon": 24.94061,
        "zoneId": "A",
        "vehicleType": 0,
        "vehicleMode": "TRAM"
      },
      {
        "gtfsId": "HSL:1020457",
        "name": "Kaisaniemenkatu",
        "lat": 60.171783,
        "lon": 24.947617,
        "zoneId": "A",
        "vehicleType": 0,
        "vehicleMode": "TRAM"
      },
      {
        "gtfsId": "HSL:1020456",
        "name": "Rautatientori",
        "lat": 60.171177,
        "lon": 24.944893,
        "zoneId": "A",
        "vehicleType": 0,
        "vehicleMode": "TRAM"
      },
      {
        "gtfsId": "HSL:9050237",
        "name": "Kaskitie",
        "lat": 60.41085,
        "lon": 25.136687,
        "zoneId": "D",
        "vehicleType": 3,
        "vehicleMode": "BUS"
      },
      {
        "gtfsId": "HSL:1020459",
        "name": "Kaisaniemenpuisto",
        "lat": 60.1736,
        "lon": 24.94958,
        "zoneId": "A",
        "vehicleType": 0,
        "vehicleMode": "TRAM"
      },
      {
        "gtfsId": "HSL:1020458",
        "name": "Kaisaniemenkatu",
        "lat": 60.17165,
        "lon": 24.94751,
        "zoneId": "A",
        "vehicleType": 0,
        "vehicleMode": "TRAM"
      },
      {
        "gtfsId": "HSL:9050234",
        "name": "Moukaritie",
        "lat": 60.40252,
        "lon": 25.14004,
        "zoneId": "D",
        "vehicleType": 3,
        "vehicleMode": "BUS"
      },
      {
        "gtfsId": "HSL:1171406",
        "name": "Maistraatintori",
        "lat": 60.19866,
        "lon": 24.92539,
        "zoneId": "A",
        "vehicleType": 0,
        "vehicleMode": "TRAM"
      },
      {
        "gtfsId": "HSL:1171407",
        "name": "Kyllikinportti",
        "lat": 60.19975,
        "lon": 24.925266,
        "zoneId": "A",
        "vehicleType": 0,
        "vehicleMode": "TRAM"
      },
      {
        "gtfsId": "HSL:9050233",
        "name": "Ahjon koulu",
        "lat": 60.40055,
        "lon": 25.14017,
        "zoneId": "D",
        "vehicleType": 3,
        "vehicleMode": "BUS"
      },
      {
        "gtfsId": "HSL:1171408",
        "name": "Kyllikinportti",
        "lat": 60.199865,
        "lon": 24.925524,
        "zoneId": "A",
        "vehicleType": 0,
        "vehicleMode": "TRAM"
      },
      {
        "gtfsId": "HSL:9050236",
        "name": "Kaskitie",
        "lat": 60.41092,
        "lon": 25.136889,
        "zoneId": "D",
        "vehicleType": 3,
        "vehicleMode": "BUS"
      },
      {
        "gtfsId": "HSL:9050235",
        "name": "Moukaritie",
        "lat": 60.4028,
        "lon": 25.14068,
        "zoneId": "D",
        "vehicleType": 3,
        "vehicleMode": "BUS"
      },
      {
        "gtfsId": "HSL:9610311",
        "name": "Ojalantie",
        "lat": 60.528282,
        "lon": 24.946632,
        "zoneId": "D",
        "vehicleType": 3,
        "vehicleMode": "BUS"
      },
      {
        "gtfsId": "HSL:9610310",
        "name": "Ojalantie",
        "lat": 60.528217,
        "lon": 24.945391,
        "zoneId": "D",
        "vehicleType": 3,
        "vehicleMode": "BUS"
      },
      {
        "gtfsId": "HSL:9610315",
        "name": "Perttu",
        "lat": 60.53898,
        "lon": 24.960716,
        "zoneId": "D",
        "vehicleType": 3,
        "vehicleMode": "BUS"
      },
      {
        "gtfsId": "HSL:9610314",
        "name": "Perttu",
        "lat": 60.539254,
        "lon": 24.96233,
        "zoneId": "D",
        "vehicleType": 3,
        "vehicleMode": "BUS"
      },
      {
        "gtfsId": "HSL:9610317",
        "name": "Pertun koulu",
        "lat": 60.544047,
        "lon": 24.971887,
        "zoneId": "D",
        "vehicleType": 3,
        "vehicleMode": "BUS"
      },
      {
        "gtfsId": "HSL:9610316",
        "name": "Pertun koulu",
        "lat": 60.544953,
        "lon": 24.970892,
        "zoneId": "D",
        "vehicleType": 3,
        "vehicleMode": "BUS"
      },
      {
        "gtfsId": "HSL:9610319",
        "name": "Rovastintie",
        "lat": 60.54031,
        "lon": 24.96755,
        "zoneId": "D",
        "vehicleType": 3,
        "vehicleMode": "BUS"
      },
      {
        "gtfsId": "HSL:9610318",
        "name": "Rovastintie",
        "lat": 60.54065,
        "lon": 24.969297,
        "zoneId": "D",
        "vehicleType": 3,
        "vehicleMode": "BUS"
      },
      {
        "gtfsId": "HSL:9610309",
        "name": "Kuorontie",
        "lat": 60.535146,
        "lon": 24.954998,
        "zoneId": "D",
        "vehicleType": 3,
        "vehicleMode": "BUS"
      },
      {
        "gtfsId": "HSL:9610322",
        "name": "Vuorenteko",
        "lat": 60.54307,
        "lon": 24.987469,
        "zoneId": "D",
        "vehicleType": 3,
        "vehicleMode": "BUS"
      },
      {
        "gtfsId": "HSL:9610323",
        "name": "Vuorenteko",
        "lat": 60.542261,
        "lon": 24.989126,
        "zoneId": "D",
        "vehicleType": 3,
        "vehicleMode": "BUS"
      },
      {
        "gtfsId": "HSL:4160299",
        "name": "Silvola",
        "lat": 60.265,
        "lon": 24.88162,
        "zoneId": "B",
        "vehicleType": 3,
        "vehicleMode": "BUS"
      },
      {
        "gtfsId": "HSL:4600501",
        "name": "Hiekkaharju",
        "lat": 60.303266,
        "lon": 25.049019,
        "zoneId": "C",
        "vehicleType": 109,
        "vehicleMode": "RAIL"
      },
      {
        "gtfsId": "HSL:1434101",
        "name": "Kipparlahti",
        "lat": 60.19212,
        "lon": 25.02393,
        "zoneId": "B",
        "vehicleType": 3,
        "vehicleMode": "BUS"
      },
      {
        "gtfsId": "HSL:1434114",
        "name": "Herttoniemenranta",
        "lat": 60.190465,
        "lon": 25.025627,
        "zoneId": "B",
        "vehicleType": 3,
        "vehicleMode": "BUS"
      },
      {
        "gtfsId": "HSL:4400299",
        "name": "Kuninkaantie",
        "lat": 60.28752,
        "lon": 24.89207,
        "zoneId": "B",
        "vehicleType": 3,
        "vehicleMode": "BUS"
      },
      {
        "gtfsId": "HSL:4400298",
        "name": "Kuninkaantie",
        "lat": 60.28786,
        "lon": 24.89045,
        "zoneId": "B",
        "vehicleType": 3,
        "vehicleMode": "BUS"
      },
      {
        "gtfsId": "HSL:2415202",
        "name": "Suinonsalmi",
        "lat": 60.12894,
        "lon": 24.69474,
        "zoneId": "C",
        "vehicleType": 3,
        "vehicleMode": "BUS"
      },
      {
        "gtfsId": "HSL:2415203",
        "name": "Vesiniitty",
        "lat": 60.136514,
        "lon": 24.679891,
        "zoneId": "C",
        "vehicleType": 3,
        "vehicleMode": "BUS"
      },
      {
        "gtfsId": "HSL:2415201",
        "name": "Suinonsalmi",
        "lat": 60.12835,
        "lon": 24.69503,
        "zoneId": "C",
        "vehicleType": 3,
        "vehicleMode": "BUS"
      },
      {
        "gtfsId": "HSL:1434112",
        "name": "Laivalahdenportti",
        "lat": 60.19326,
        "lon": 25.03494,
        "zoneId": "B",
        "vehicleType": 3,
        "vehicleMode": "BUS"
      },
      {
        "gtfsId": "HSL:1171457",
        "name": "Eläintarha",
        "lat": 60.19268,
        "lon": 24.92923,
        "zoneId": "A",
        "vehicleType": 0,
        "vehicleMode": "TRAM"
      },
      {
        "gtfsId": "HSL:1171458",
        "name": "Eläintarha",
        "lat": 60.19285,
        "lon": 24.92925,
        "zoneId": "A",
        "vehicleType": 0,
        "vehicleMode": "TRAM"
      },
      {
        "gtfsId": "HSL:1201602",
        "name": "Ruoholahti",
        "lat": 60.163217,
        "lon": 24.915563,
        "zoneId": "A",
        "vehicleType": 1,
        "vehicleMode": "SUBWAY"
      },
      {
        "gtfsId": "HSL:1201601",
        "name": "Ruoholahti",
        "lat": 60.163178,
        "lon": 24.915567,
        "zoneId": "A",
        "vehicleType": 1,
        "vehicleMode": "SUBWAY"
      },
      {
        "gtfsId": "HSLlautta:595",
        "name": "Långnäs P",
        "lat": 60.1531256861,
        "lon": 20.2891731262,
        "zoneId": null,
        "vehicleType": -999,
        "vehicleMode": null
      },
      {
        "gtfsId": "HSLlautta:594",
        "name": "Ängö",
        "lat": 60.1540227211,
        "lon": 20.2945804596,
        "zoneId": null,
        "vehicleType": -999,
        "vehicleMode": null
      },
      {
        "gtfsId": "HSLlautta:597",
        "name": "Simskäla",
        "lat": 60.3316213622,
        "lon": 20.3652191162,
        "zoneId": null,
        "vehicleType": -999,
        "vehicleMode": null
      },
      {
        "gtfsId": "HSLlautta:596",
        "name": "Sandö",
        "lat": 60.3207860407,
        "lon": 20.3735876083,
        "zoneId": null,
        "vehicleType": -999,
        "vehicleMode": null
      },
      {
        "gtfsId": "HSL:9229201",
        "name": "Rajaveräjänmäki",
        "lat": 60.39883,
        "lon": 25.268908,
        "zoneId": "D",
        "vehicleType": 3,
        "vehicleMode": "BUS"
      },
      {
        "gtfsId": "HSLlautta:599",
        "name": "Töftö",
        "lat": 60.2059235928,
        "lon": 20.2778434753,
        "zoneId": null,
        "vehicleType": -999,
        "vehicleMode": null
      },
      {
        "gtfsId": "HSL:1453214",
        "name": "Itäkeskus (M)",
        "lat": 60.21033,
        "lon": 25.07785,
        "zoneId": "B",
        "vehicleType": 3,
        "vehicleMode": "BUS"
      },
      {
        "gtfsId": "HSL:9229202",
        "name": "Rajaveräjänmäki",
        "lat": 60.398647,
        "lon": 25.269158,
        "zoneId": "D",
        "vehicleType": 3,
        "vehicleMode": "BUS"
      },
      {
        "gtfsId": "HSLlautta:598",
        "name": "Prästö",
        "lat": 60.2081412095,
        "lon": 20.2720928192,
        "zoneId": null,
        "vehicleType": -999,
        "vehicleMode": null
      },
      {
        "gtfsId": "HSL:9229203",
        "name": "Jokitörmä",
        "lat": 60.390658,
        "lon": 25.291292,
        "zoneId": "D",
        "vehicleType": 3,
        "vehicleMode": "BUS"
      },
      {
        "gtfsId": "HSL:9229204",
        "name": "Jokitörmä",
        "lat": 60.390917,
        "lon": 25.291257,
        "zoneId": "D",
        "vehicleType": 3,
        "vehicleMode": "BUS"
      },
      {
        "gtfsId": "HSL:9229205",
        "name": "Björkbacka",
        "lat": 60.392832,
        "lon": 25.295147,
        "zoneId": "D",
        "vehicleType": 3,
        "vehicleMode": "BUS"
      },
      {
        "gtfsId": "HSL:9229206",
        "name": "Björkbacka",
        "lat": 60.393408,
        "lon": 25.296543,
        "zoneId": "D",
        "vehicleType": 3,
        "vehicleMode": "BUS"
      },
      {
        "gtfsId": "HSL:4160220",
        "name": "Vetokuja",
        "lat": 60.27017,
        "lon": 24.87906,
        "zoneId": "B",
        "vehicleType": 3,
        "vehicleMode": "BUS"
      },
      {
        "gtfsId": "HSL:9229207",
        "name": "Lindnäs",
        "lat": 60.395527,
        "lon": 25.298033,
        "zoneId": "D",
        "vehicleType": 3,
        "vehicleMode": "BUS"
      },
      {
        "gtfsId": "HSL:9229208",
        "name": "Lindnäs",
        "lat": 60.396172,
        "lon": 25.298523,
        "zoneId": "D",
        "vehicleType": 3,
        "vehicleMode": "BUS"
      },
      {
        "gtfsId": "HSL:4160222",
        "name": "Ukonkivenpolku",
        "lat": 60.26189,
        "lon": 24.87109,
        "zoneId": "B",
        "vehicleType": 3,
        "vehicleMode": "BUS"
      },
      {
        "gtfsId": "HSL:4160221",
        "name": "Vetokuja",
        "lat": 60.26918,
        "lon": 24.87913,
        "zoneId": "B",
        "vehicleType": 3,
        "vehicleMode": "BUS"
      },
      {
        "gtfsId": "HSL:4160224",
        "name": "Vaskipellontie",
        "lat": 60.25712,
        "lon": 24.87201,
        "zoneId": "B",
        "vehicleType": 3,
        "vehicleMode": "BUS"
      },
      {
        "gtfsId": "HSL:4160223",
        "name": "Ukonkivenpolku",
        "lat": 60.26171,
        "lon": 24.8718,
        "zoneId": "B",
        "vehicleType": 3,
        "vehicleMode": "BUS"
      },
      {
        "gtfsId": "HSL:4160226",
        "name": "Ojahaka",
        "lat": 60.26548,
        "lon": 24.86497,
        "zoneId": "B",
        "vehicleType": 3,
        "vehicleMode": "BUS"
      },
      {
        "gtfsId": "HSL:4160225",
        "name": "Vaskipellontie",
        "lat": 60.25685,
        "lon": 24.87225,
        "zoneId": "B",
        "vehicleType": 3,
        "vehicleMode": "BUS"
      },
      {
        "gtfsId": "HSL:2241280",
        "name": "Juhannusmäki",
        "lat": 60.18329,
        "lon": 24.75372,
        "zoneId": "B",
        "vehicleType": 3,
        "vehicleMode": "BUS"
      },
      {
        "gtfsId": "HSL:4160217",
        "name": "Volvo",
        "lat": 60.26342,
        "lon": 24.87936,
        "zoneId": "B",
        "vehicleType": 3,
        "vehicleMode": "BUS"
      },
      {
        "gtfsId": "HSL:1381120",
        "name": "Malmin tori",
        "lat": 60.25147,
        "lon": 25.00839,
        "zoneId": "B",
        "vehicleType": 3,
        "vehicleMode": "BUS"
      },
      {
        "gtfsId": "HSL:9217220",
        "name": "Semtu",
        "lat": 60.406852,
        "lon": 25.175837,
        "zoneId": "D",
        "vehicleType": 3,
        "vehicleMode": "BUS"
      },
      {
        "gtfsId": "HSL:1381121",
        "name": "Malmin tori",
        "lat": 60.25192,
        "lon": 25.00724,
        "zoneId": "B",
        "vehicleType": 3,
        "vehicleMode": "BUS"
      },
      {
        "gtfsId": "HSL:4160216",
        "name": "Kaivosrinteenpolku",
        "lat": 60.2707,
        "lon": 24.8746,
        "zoneId": "B",
        "vehicleType": 3,
        "vehicleMode": "BUS"
      },
      {
        "gtfsId": "HSL:9217222",
        "name": "Mårtensby skola",
        "lat": 60.402442,
        "lon": 25.190088,
        "zoneId": "D",
        "vehicleType": 3,
        "vehicleMode": "BUS"
      },
      {
        "gtfsId": "HSL:4160219",
        "name": "Silvola",
        "lat": 60.26605,
        "lon": 24.88205,
        "zoneId": "B",
        "vehicleType": 3,
        "vehicleMode": "BUS"
      },